City,State_Abbre,Type,Population,Latitude,Longitude
New York,NY,City,8804190,40.714,-74.007
Los Angeles,CA,City,3898747,34.052,-118.243
Chicago,IL,City,2746388,41.882,-87.628
Houston,TX,City,2304580,29.76,-95.363
Phoenix,AZ,City,1608139,33.448,-112.074
Philadelphia,PA,City,1603797,39.952,-75.164
San Antonio,TX,City,1434625,29.423,-98.49
San Diego,CA,City,1386932,32.716,-117.165
Dallas,TX,City,1304379,32.781,-96.797
San Jose,CA,City,1013240,37.336,-121.891
Austin,TX,City,961855,30.268,-97.743
Jacksonville,FL,City,949611,30.328,-81.657
Fort Worth,TX,City,918915,32.754,-97.331
Columbus,OH,City,905748,39.962,-83.001
Indianapolis,IN,City,887642,39.769,-86.158
Charlotte,NC,City,874579,35.227,-80.843
San Francisco,CA,City,873965,37.78,-122.414
Seattle,WA,City,737015,47.607,-122.338
Denver,CO,City,715522,39.739,-104.987
Washington,DC,City,689545,38.895,-77.036
Nashville,TN,Metro Government,689447,36.164,-86.783
Oklahoma City,OK,City,681054,35.468,-97.516
El Paso,TX,City,678815,31.76,-106.488
Boston,MA,City,675647,42.359,-71.057
Portland,OR,City,652503,45.519,-122.679
Las Vegas,NV,City,641903,36.171,-115.144
Detroit,MI,City,639111,42.332,-83.047
Memphis,TN,City,633104,35.146,-90.052
Louisville,KY,Metro Government,633045,38.257,-85.757
Baltimore,MD,City,585708,39.289,-76.615
Milwaukee,WI,City,577222,43.042,-87.905
Albuquerque,NM,City,564559,35.084,-106.652
Tucson,AZ,City,542629,32.222,-110.973
Fresno,CA,City,542107,36.737,-119.789
Sacramento,CA,City,524943,38.577,-121.496
Kansas City,MO,City,508090,39.104,-94.583
Mesa,AZ,City,504258,33.415,-111.831
Atlanta,GA,City,498715,33.749,-84.39
Omaha,NE,City,486051,41.26,-95.94
Colorado Springs,CO,City,478961,38.832,-104.822
Raleigh,NC,City,467665,35.78,-78.639
Long Beach,CA,City,466742,33.768,-118.192
Virginia Beach,VA,City,459470,36.845,-75.974
Miami,FL,City,442241,25.774,-80.192
Oakland,CA,City,440646,37.804,-122.271
Minneapolis,MN,City,429954,44.977,-93.272
Tulsa,OK,City,413066,36.153,-95.991
Bakersfield,CA,City,403455,35.373,-119.019
Wichita,KS,City,397532,37.686,-97.338
Arlington,TX,City,394266,32.737,-97.107
Aurora,CO,City,386261,39.726,-104.847
Tampa,FL,City,384959,27.949,-82.458
New Orleans,LA,City,383997,29.957,-90.063
Cleveland,OH,City,372624,41.5,-81.694
Honolulu,HI,Census-Designated Place,350964,21.306,-157.86
Anaheim,CA,City,346824,33.833,-117.913
Lexington,KY,Urban County,322570,38.047,-84.498
Stockton,CA,City,320804,37.955,-121.293
Corpus Christi,TX,City,317863,27.797,-97.395
Henderson,NV,City,317610,36.03,-114.983
Riverside,CA,City,314998,33.983,-117.374
Newark,NJ,City,311549,40.736,-74.172
St Paul,MN,City,311527,44.946,-93.094
Santa Ana,CA,City,310227,33.745,-117.868
Cincinnati,OH,City,309317,39.105,-84.514
Irvine,CA,City,307670,33.684,-117.796
Orlando,FL,City,307573,28.543,-81.378
Pittsburgh,PA,City,302971,40.441,-80.003
St Louis,MO,City,301578,38.626,-90.191
Greensboro,NC,City,299035,36.073,-79.792
Jersey City,NJ,City,292449,40.732,-74.063
Anchorage,AK,Municipality,291247,61.218,-149.885
Lincoln,NE,City,291082,40.809,-96.7
Plano,TX,City,285494,33.02,-96.698
Durham,NC,City,283506,35.995,-78.901
Buffalo,NY,City,278349,42.886,-78.878
Chandler,AZ,City,275987,33.306,-111.841
Chula Vista,CA,City,275487,32.64,-117.082
Toledo,OH,City,270871,41.651,-83.542
Madison,WI,City,269840,43.074,-89.383
Gilbert,AZ,Town,267918,33.354,-111.79
Reno,NV,City,264165,39.529,-119.814
Fort Wayne,IN,City,263886,41.08,-85.14
North Las Vegas,NV,City,262527,36.202,-115.12
St Petersburg,FL,City,258308,27.771,-82.637
Lubbock,TX,City,257141,33.585,-101.846
Irving,TX,City,256684,32.814,-96.946
Laredo,TX,City,255205,27.506,-99.503
Winston Salem,NC,City,249545,36.095,-80.244
Chesapeake,VA,City,249422,36.809,-76.271
Glendale,AZ,City,248325,33.539,-112.186
Garland,TX,City,246018,32.913,-96.639
Scottsdale,AZ,City,241361,33.495,-111.926
Norfolk,VA,City,238005,36.848,-76.292
Boise,ID,City,235684,43.615,-116.202
Fremont,CA,City,230504,37.549,-121.988
Spokane,WA,City,228989,47.657,-117.418
Santa Clarita,CA,City,228673,34.38,-118.541
Baton Rouge,LA,City,227470,30.443,-91.184
Richmond,VA,City,226610,37.546,-77.453
Hialeah,FL,City,223109,25.846,-80.268
San Bernardino,CA,City,222101,34.106,-117.292
Tacoma,WA,City,219346,47.253,-122.44
Modesto,CA,City,218464,37.639,-120.997
Huntsville,AL,City,215006,34.73,-86.586
Des Moines,IA,City,214133,41.587,-93.626
Yonkers,NY,City,211569,40.932,-73.899
Rochester,NY,City,211328,43.156,-77.613
Moreno Valley,CA,City,208634,33.936,-117.229
Fayetteville,NC,City,208501,35.053,-78.878
Fontana,CA,City,208393,34.101,-117.436
Columbus,GA,City,206922,32.469,-84.988
Worcester,MA,City,206518,42.263,-71.802
Port St Lucie,FL,City,204851,27.276,-80.355
Little Rock,AR,City,202591,34.747,-92.288
Augusta,GA,Consolidated Government,202081,33.476,-81.966
Oxnard,CA,City,202063,34.198,-119.177
Birmingham,AL,City,200733,33.514,-86.806
Montgomery,AL,City,200603,32.378,-86.301
Frisco,TX,City,200509,33.151,-96.825
Amarillo,TX,City,200393,35.207,-101.836
Salt Lake City,UT,City,199723,40.769,-111.891
Grand Rapids,MI,City,198917,42.963,-85.668
Huntington Beach,CA,City,198711,33.659,-118.0
Overland Park,KS,City,197238,38.986,-94.668
Glendale,CA,City,196543,34.143,-118.258
Tallahassee,FL,City,196169,30.438,-84.282
Grand Prairie,TX,City,196100,32.745,-97.004
McKinney,TX,City,195308,33.197,-96.616
Cape Coral,FL,City,194016,26.563,-81.95
Sioux Falls,SD,City,192517,43.547,-96.727
Peoria,AZ,City,190985,33.582,-112.238
Providence,RI,City,190934,41.824,-71.413
Vancouver,WA,City,190915,45.63,-122.677
Knoxville,TN,City,190740,35.962,-83.918
Akron,OH,City,190469,41.085,-81.517
Shreveport,LA,City,187593,32.514,-93.748
Mobile,AL,City,187041,30.691,-88.046
Brownsville,TX,City,186738,25.902,-97.498
Newport News,VA,City,186247,36.98,-76.431
Fort Lauderdale,FL,City,182760,26.119,-80.143
Chattanooga,TN,City,181099,35.05,-85.31
Tempe,AZ,City,180587,33.415,-111.909
Aurora,IL,City,180542,41.758,-88.315
Santa Rosa,CA,City,178127,38.44,-122.713
Eugene,OR,City,176654,44.05,-123.093
Elk Grove,CA,City,176124,38.409,-121.371
Salem,OR,City,175535,44.939,-123.032
Ontario,CA,City,175265,34.063,-117.651
Cary,NC,Town,174721,35.787,-78.783
Rancho Cucamonga,CA,City,174453,34.107,-117.594
Oceanside,CA,City,174068,33.195,-117.384
Lancaster,CA,City,173516,34.697,-118.148
Garden Grove,CA,City,171949,33.775,-117.941
Pembroke Pines,FL,City,171178,26.002,-80.223
Fort Collins,CO,City,169810,40.587,-105.077
Palmdale,CA,City,169450,34.58,-118.117
Springfield,MO,City,169176,37.209,-93.292
Clarksville,TN,City,166722,36.528,-87.361
Salinas,CA,City,163542,36.678,-121.655
Hayward,CA,City,162954,37.671,-122.085
Paterson,NJ,City,159732,40.917,-74.172
Alexandria,VA,City,159467,38.805,-77.047
Macon,GA,Consolidated Government,157346,32.838,-83.628
Corona,CA,City,157136,33.876,-117.567
Kansas City,KS,City,156607,39.116,-94.627
Lakewood,CO,City,155984,39.705,-105.081
Springfield,MA,City,155929,42.101,-72.589
Sunnyvale,CA,City,155805,37.369,-122.037
Jackson,MS,City,153701,32.3,-90.186
Killeen,TX,City,153095,31.117,-97.73
Hollywood,FL,City,153067,26.011,-80.149
Murfreesboro,TN,City,152769,35.846,-86.392
Pasadena,TX,City,151950,29.691,-95.209
Bellevue,WA,City,151854,47.617,-122.202
Pomona,CA,City,151713,34.059,-117.752
Escondido,CA,City,151038,33.122,-117.081
Joliet,IL,City,150362,41.525,-88.082
Charleston,SC,City,150227,32.776,-79.931
Mesquite,TX,City,150108,32.767,-96.599
Naperville,IL,City,149540,41.774,-88.148
Rockford,IL,City,148655,42.271,-89.095
Bridgeport,CT,Town,148654,41.198,-73.194
Syracuse,NY,City,148620,43.047,-76.149
Savannah,GA,City,147780,32.079,-81.091
Roseville,CA,City,147773,38.752,-121.288
Torrance,CA,City,147067,33.836,-118.34
Fullerton,CA,City,143617,33.87,-117.924
Surprise,AZ,City,143148,33.63,-112.377
McAllen,TX,City,142210,26.203,-98.231
Thornton,CO,City,141867,39.871,-104.972
Visalia,CA,City,141384,36.33,-119.292
Olathe,KS,City,141290,38.882,-94.82
Gainesville,FL,City,141085,29.652,-82.325
West Valley City,UT,City,140230,40.697,-111.996
Orange,CA,City,139911,33.788,-117.853
Denton,TX,City,139869,33.215,-97.132
Warren,MI,City,139387,42.492,-83.028
Pasadena,CA,City,138699,34.148,-118.143
Waco,TX,City,138486,31.557,-97.132
Cedar Rapids,IA,City,137710,41.978,-91.664
Dayton,OH,City,137644,39.758,-84.191
Elizabeth,NJ,City,137298,40.665,-74.215
Hampton,VA,City,137148,37.026,-76.344
Columbia,SC,City,136632,34.001,-81.034
Kent,WA,City,136588,47.381,-122.231
Stamford,CT,Town,135470,41.124,-73.567
Lakewood,NJ,Township,135158,40.076,-74.199
Victorville,CA,City,134810,34.537,-117.294
Miramar,FL,City,134721,25.987,-80.238
Coral Springs,FL,City,134394,26.273,-80.266
Sterling Heights,MI,City,134346,42.58,-83.03
New Haven,CT,Town,134023,41.313,-72.931
Carrollton,TX,City,133434,32.954,-96.89
Midland,TX,City,132524,31.998,-102.074
Norman,OK,City,128026,35.221,-97.443
Santa Clara,CA,City,127647,37.354,-121.954
Athens,GA,Unified Government,127315,33.958,-83.375
Thousand Oaks,CA,City,126966,34.175,-118.845
Topeka,KS,City,126587,39.05,-95.677
Simi Valley,CA,City,126356,34.272,-118.779
Columbia,MO,City,126254,38.952,-92.329
Vallejo,CA,City,126090,38.101,-122.255
Fargo,ND,City,125990,46.874,-96.788
Allentown,PA,City,125845,40.602,-75.472
Pearland,TX,City,125828,29.564,-95.286
Concord,CA,City,125410,37.977,-122.034
Abilene,TX,City,125182,32.449,-99.733
Arvada,CO,City,124402,39.802,-105.081
Berkeley,CA,City,124321,37.871,-122.268
Ann Arbor,MI,City,123851,42.281,-83.748
Independence,MO,City,123011,39.092,-94.416
Rochester,MN,City,121395,44.023,-92.463
Lafayette,LA,City,121374,30.223,-92.02
Hartford,CT,Town,121054,41.761,-72.689
College Station,TX,City,120511,30.628,-96.335
Clovis,CA,City,120124,36.825,-119.7
Fairfield,CA,City,119881,38.249,-122.04
Palm Bay,FL,City,119760,28.035,-80.622
Richardson,TX,City,119469,32.949,-96.732
Round Rock,TX,City,119468,30.509,-97.679
Cambridge,MA,City,118403,42.376,-71.117
Meridian,ID,City,117635,43.605,-116.392
West Palm Beach,FL,City,117415,26.713,-80.052
Evansville,IN,City,117298,37.97,-87.574
Clearwater,FL,City,117292,27.966,-82.8
Billings,MT,City,117116,45.783,-108.507
West Jordan,UT,City,116961,40.61,-111.939
Richmond,CA,City,116448,37.936,-122.348
Westminster,CO,City,116317,39.835,-105.034
Manchester,NH,City,115644,42.991,-71.463
Lowell,MA,City,115554,42.645,-71.313
Wilmington,NC,City,115451,34.235,-77.949
Antioch,CA,City,115291,38.005,-121.806
Beaumont,TX,City,115282,30.082,-94.098
Provo,UT,City,115162,40.234,-111.659
North Charleston,SC,City,114852,32.854,-79.974
Elgin,IL,City,114797,42.037,-88.284
Carlsbad,CA,City,114746,33.158,-117.351
Odessa,TX,City,114428,31.848,-102.369
Waterbury,CT,Town,114403,41.554,-73.043
Springfield,IL,City,114394,39.801,-89.655
League City,TX,City,114392,29.508,-95.095
Downey,CA,City,114355,33.94,-118.133
Gresham,OR,City,114247,45.498,-122.431
High Point,NC,City,114059,35.957,-80.006
Broken Arrow,OK,City,113540,36.052,-95.791
Peoria,IL,City,113150,40.693,-89.591
Lansing,MI,City,112644,42.734,-84.552
Lakeland,FL,City,112641,28.045,-81.956
Pompano Beach,FL,City,112046,26.232,-80.126
Costa Mesa,CA,City,111918,33.641,-117.919
Pueblo,CO,City,111876,38.256,-104.624
Lewisville,TX,City,111822,33.046,-96.994
Miami Gardens,FL,City,111640,25.941,-80.245
Las Cruces,NM,City,111385,32.31,-106.779
Sugar Land,TX,City,111026,29.595,-95.621
Murrieta,CA,City,110949,33.554,-117.214
Ventura,CA,City,110763,34.281,-119.301
Everett,WA,City,110629,47.979,-122.202
Temecula,CA,City,110003,33.493,-117.149
Dearborn,MI,City,109976,42.322,-83.176
Santa Maria,CA,City,109707,34.953,-120.436
West Covina,CA,City,109501,34.069,-117.938
El Monte,CA,City,109450,34.073,-118.032
Greeley,CO,City,108795,40.425,-104.694
Sparks,NV,City,108445,39.535,-119.753
Centennial,CO,City,108418,39.586,-104.885
Boulder,CO,City,108250,40.018,-105.278
Sandy Springs,GA,City,108080,33.925,-84.379
Inglewood,CA,City,107762,33.962,-118.352
Edison,NJ,Township,107588,40.512,-74.387
South Fulton,GA,city,107436,33.657,-84.573
Green Bay,WI,City,107395,44.516,-88.008
Burbank,CA,City,107337,34.182,-118.31
Renton,WA,City,106785,47.48,-122.208
Hillsboro,OR,City,106447,45.523,-122.99
El Cajon,CA,City,106215,32.795,-116.962
Tyler,TX,City,105995,32.351,-95.301
Davie,FL,Town,105691,26.073,-80.232
San Mateo,CA,City,105661,37.564,-122.324
Brockton,MA,City,105643,42.083,-71.02
Concord,NC,City,105240,35.411,-80.581
Jurupa Valley,CA,City,105053,33.999,-117.475
Daly City,CA,City,104901,37.706,-122.462
Allen,TX,City,104627,33.103,-96.67
Rio Rancho,NM,City,104046,35.241,-106.656
Rialto,CA,City,104026,34.099,-117.37
Woodbridge,NJ,Township,103639,40.564,-74.301
South Bend,IN,City,103453,41.676,-86.252
Spokane Valley,WA,City,102976,47.657,-117.24
Norwalk,CA,City,102773,33.902,-118.083
Menifee,CA,City,102527,33.685,-117.189
Vacaville,CA,City,102386,38.357,-121.986
Wichita Falls,TX,City,102316,33.912,-98.492
Davenport,IA,City,101724,41.522,-90.576
Quincy,MA,City,101636,42.252,-71.004
Chico,CA,City,101475,39.728,-121.839
Lynn,MA,City,101253,42.464,-70.951
Lees Summit,MO,City,101108,38.912,-94.378
New Bedford,MA,City,101079,41.635,-70.926
Federal Way,WA,City,101030,47.315,-122.313
Clinton,MI,Charter Township,100513,42.591,-82.936
Edinburg,TX,City,100243,26.301,-98.162
Nampa,ID,City,100200,43.579,-116.562
Roanoke,VA,City,100011,37.272,-79.939
Kenosha,WI,City,99986,42.584,-87.823
San Angelo,TX,City,99893,31.464,-100.437
Hesperia,CA,City,99818,34.422,-117.302
Carmel,IN,City,99757,39.978,-86.127
Tuscaloosa,AL,City,99600,33.206,-87.567
Albany,NY,City,99224,42.653,-73.758
Bend,OR,City,99178,44.058,-121.313
Fishers,IN,City,98977,39.957,-86.017
Longmont,CO,City,98885,40.167,-105.103
Canton,MI,Charter Township,98659,42.307,-83.487
Vista,CA,City,98381,33.202,-117.244
Orem,UT,City,98129,40.297,-111.695
Portsmouth,VA,City,97915,36.835,-76.299
Beaverton,OR,City,97494,45.487,-122.804
Boca Raton,FL,City,97422,26.351,-80.086
Sunrise,FL,City,97335,26.17,-80.284
Yakima,WA,City,96968,46.602,-120.506
Sandy,UT,City,96904,40.573,-111.853
Compton,CA,City,95740,33.896,-118.22
Carson,CA,City,95558,33.832,-118.278
Yuma,AZ,City,95548,32.713,-114.625
Livonia,MI,City,95535,42.376,-83.353
Toms River,NJ,Township,95438,39.991,-74.191
St George,UT,City,95342,37.108,-113.583
Goodyear,AZ,City,95294,33.435,-112.409
Reading,PA,City,95112,40.335,-75.928
Lawrence,KS,City,94934,38.971,-95.236
San Marcos,CA,City,94833,33.141,-117.166
Erie,PA,City,94831,42.129,-80.085
Asheville,NC,City,94589,35.595,-82.552
Edmond,OK,City,94428,35.655,-97.481
Suffolk,VA,City,94324,36.73,-76.583
Fall River,MA,City,94000,41.702,-71.155
Fayetteville,AR,City,93949,36.063,-94.161
Deltona,FL,City,93692,28.901,-81.263
Mission Viejo,CA,City,93653,33.597,-117.669
Redding,CA,City,93611,40.586,-122.39
Santa Monica,CA,City,93076,34.019,-118.491
Tracy,CA,City,93000,37.74,-121.426
Roswell,GA,City,92833,34.022,-84.359
South Gate,CA,City,92726,33.955,-118.212
Hoover,AL,City,92606,33.4,-86.806
Hamilton,NJ,Township,92297,40.222,-74.686
Kirkland,WA,City,92175,47.675,-122.203
Plantation,FL,City,91750,26.121,-80.252
Buckeye,AZ,City,91502,33.371,-112.583
Bellingham,WA,City,91482,48.75,-122.479
Chino,CA,City,91403,34.012,-117.689
Nashua,NH,City,91322,42.765,-71.468
OFallon,MO,City,91316,38.811,-90.7
Norwalk,CT,Town,91184,41.13,-73.429
San Leandro,CA,City,91008,37.723,-122.154
Westminster,CA,City,90911,33.759,-118.007
Trenton,NJ,City,90871,40.22,-74.766
Mount Pleasant,SC,Town,90801,32.792,-79.872
New Braunfels,TX,City,90403,29.703,-98.125
Lawton,OK,City,90381,34.605,-98.392
Clifton,NJ,City,90296,40.867,-74.154
Bloomington,MN,City,89987,44.841,-93.298
Conroe,TX,City,89956,30.312,-95.458
Hemet,CA,City,89833,33.748,-116.972
Avondale,AZ,City,89334,33.435,-112.35
Waukegan,IL,City,89321,42.36,-87.831
Palm Coast,FL,City,89258,29.555,-81.211
Lawrence,MA,City,89143,42.708,-71.162
Fort Smith,AR,City,89142,35.383,-94.421
Indio,CA,City,89137,33.719,-116.216
Newton,MA,City,88923,42.337,-71.208
Santa Barbara,CA,City,88665,34.421,-119.702
Champaign,IL,City,88302,40.116,-88.243
Hawthorne,CA,City,88083,33.916,-118.353
Livermore,CA,City,87955,37.682,-121.768
Citrus Heights,CA,City,87583,38.707,-121.29
Greenville,NC,City,87521,35.611,-77.373
Santa Fe,NM,City,87505,35.687,-105.939
Ogden,UT,City,87321,41.221,-111.972
Whittier,CA,City,87306,33.979,-118.033
Troy,MI,City,87294,42.606,-83.15
Auburn,WA,City,87256,47.307,-122.229
Deerfield Beach,FL,City,86859,26.319,-80.101
Duluth,MN,City,86697,46.788,-92.099
Danbury,CT,Town,86518,41.408,-73.468
Brooklyn Park,MN,City,86478,45.094,-93.356
Fort Myers,FL,City,86395,26.643,-81.87
Merced,CA,City,86333,37.302,-120.485
Lake Forest,CA,City,85858,33.647,-117.686
Medford,OR,City,85824,42.327,-122.872
Sioux City,IA,City,85797,42.494,-96.403
Mission,TX,City,85778,26.216,-98.326
Westland,MI,City,85420,42.324,-83.399
Cicero,IL,Town,85268,41.846,-87.754
Newport Beach,CA,City,85239,33.619,-117.929
Lake Charles,LA,City,84872,30.229,-93.217
Melbourne,FL,City,84678,28.08,-80.604
San Ramon,CA,City,84605,37.776,-121.978
Redwood City,CA,City,84292,37.484,-122.226
Springdale,AR,City,84161,36.185,-94.129
Buena Park,CA,City,84034,33.868,-117.998
Farmington Hills,MI,City,83986,42.499,-83.378
Bryan,TX,City,83980,30.674,-96.373
Kennewick,WA,City,83921,46.209,-119.117
Baytown,TX,City,83701,29.735,-94.978
Manteca,CA,City,83498,37.797,-121.216
Franklin,TN,City,83454,35.925,-86.869
Cranston,RI,City,82934,41.779,-71.437
Miami Beach,FL,City,82890,25.791,-80.13
Alhambra,CA,City,82868,34.095,-118.127
Warwick,RI,City,82823,41.699,-71.46
Lakewood,CA,City,82496,33.854,-118.142
Largo,FL,City,82485,27.909,-82.788
Johns Creek,GA,City,82453,34.046,-84.223
Mountain View,CA,City,82376,37.39,-122.081
Temple,TX,City,82073,31.097,-97.343
Layton,UT,City,81773,41.06,-111.966
Longview,TX,City,81638,32.495,-94.74
Flint,MI,City,81252,43.017,-83.691
Parma,OH,City,81146,41.405,-81.723
Somerville,MA,City,81045,42.388,-71.103
Plymouth,MN,City,81026,45.015,-93.472
Homestead,FL,City,80737,25.47,-80.477
Folsom,CA,City,80454,38.678,-121.176
Gastonia,NC,City,80411,35.264,-81.184
Boynton Beach,FL,City,80380,26.529,-80.064
Warner Robins,GA,City,80308,32.618,-83.633
Tustin,CA,City,80276,33.746,-117.825
Milpitas,CA,City,80273,37.431,-121.907
Pleasanton,CA,City,79871,37.663,-121.875
New Rochelle,NY,City,79726,40.907,-73.784
Pharr,TX,City,79715,26.195,-98.184
Shelby,MI,Charter Township,79408,42.674,-83.04
Rancho Cordova,CA,City,79332,38.592,-121.297
Napa,CA,City,79246,38.298,-122.289
Kissimmee,FL,City,79226,28.292,-81.408
Bellflower,CA,City,79190,33.882,-118.125
Bloomington,IN,City,79168,39.167,-86.535
Upland,CA,City,79040,34.094,-117.651
Lynchburg,VA,City,79009,37.415,-79.142
Schaumburg,IL,Village,78723,42.027,-88.08
Perris,CA,City,78700,33.782,-117.229
Bloomington,IL,City,78680,40.479,-88.994
Jonesboro,AR,City,78576,35.842,-90.705
Chino Hills,CA,City,78411,33.977,-117.72
Alameda,CA,City,78280,37.764,-122.243
Frederick,MD,City,78171,39.414,-77.411
Evanston,IL,City,78110,42.041,-87.69
Hammond,IN,City,77879,41.585,-87.481
Racine,WI,City,77816,42.727,-87.783
Arlington Heights,IL,Village,77676,42.083,-87.983
Cedar Park,TX,City,77595,30.51,-97.823
South Jordan,UT,City,77487,40.562,-111.929
Pasco,WA,City,77108,46.231,-119.092
Flagstaff,AZ,City,76831,35.198,-111.648
Southfield,MI,City,76618,42.473,-83.221
Wyoming,MI,City,76501,42.914,-85.705
Pittsburg,CA,City,76416,38.025,-121.886
Loveland,CO,City,76378,40.395,-105.074
Scranton,PA,City,76328,41.409,-75.662
Rochester Hills,MI,City,76300,42.652,-83.153
Auburn,AL,City,76143,32.607,-85.482
Flower Mound,TX,Town,75956,33.014,-97.071
Lehi,UT,City,75907,40.388,-111.849
Doral,FL,City,75874,25.812,-80.353
Apple Valley,CA,Town,75791,34.501,-117.19
Bethlehem,PA,City,75781,40.622,-75.375
Appleton,WI,City,75644,44.262,-88.407
Pawtucket,RI,City,75604,41.877,-71.384
Woodbury,MN,City,75102,44.925,-92.96
Iowa City,IA,City,74828,41.661,-91.535
North Port,FL,City,74793,27.044,-82.236
Rapid City,SD,City,74703,44.081,-103.227
Cherry Hill,NJ,Township,74553,39.892,-74.986
Lauderhill,FL,City,74482,26.15,-80.212
Rock Hill,SC,City,74372,34.925,-81.025
Missouri City,TX,City,74259,29.596,-95.527
New Britain,CT,Town,74135,41.676,-72.785
Broomfield,CO,City,74112,39.925,-105.053
Bolingbrook,IL,Village,73922,41.698,-88.068
Mount Vernon,NY,City,73893,40.913,-73.837
Bismarck,ND,City,73622,46.805,-100.788
Brick,NJ,Township,73620,40.058,-74.121
Kalamazoo,MI,City,73598,42.292,-85.583
Missoula,MT,City,73489,46.872,-113.994
Redmond,WA,City,73256,47.674,-122.122
Redlands,CA,City,73168,34.057,-117.183
Castle Rock,CO,Town,73158,39.372,-104.856
Gulfport,MS,City,72926,30.369,-89.093
Turlock,CA,City,72740,37.495,-120.845
Jacksonville,NC,City,72723,34.751,-77.431
Daytona Beach,FL,City,72647,29.211,-81.023
Mansfield,TX,City,72602,32.563,-97.142
Dublin,CA,City,72589,37.706,-121.924
St Joseph,MO,City,72473,39.767,-94.853
Framingham,MA,Town,72362,42.31,-71.441
Bowling Green,KY,City,72294,36.995,-86.443
Baldwin Park,CA,City,72176,34.086,-117.965
Tamarac,FL,City,71897,26.208,-80.269
Harlingen,TX,City,71829,26.193,-97.697
Camden,NJ,City,71791,39.944,-75.119
Bayonne,NJ,City,71686,40.666,-74.117
Rocklin,CA,City,71601,38.791,-121.236
Redondo Beach,CA,City,71576,33.844,-118.388
Waukesha,WI,City,71158,43.012,-88.232
Dothan,AL,City,71072,31.224,-85.392
Johnson City,TN,City,71046,36.316,-82.353
Wilmington,DE,City,70898,39.738,-75.553
Canton,OH,City,70872,40.798,-81.375
Lafayette,IN,City,70783,40.419,-86.893
Camarillo,CA,City,70741,34.217,-119.039
Greenville,SC,City,70720,34.851,-82.399
Marysville,WA,City,70714,48.052,-122.177
Waterford,MI,Charter Township,70565,42.66,-83.389
Passaic,NJ,City,70537,40.863,-74.127
Decatur,IL,City,70522,39.843,-88.954
St Charles,MO,City,70493,38.782,-90.481
Lake Elsinore,CA,City,70265,33.668,-117.328
Maple Grove,MN,City,70253,45.072,-93.456
Blaine,MN,City,70222,45.161,-93.235
Union City,CA,City,70143,37.595,-122.019
Walnut Creek,CA,City,70127,37.897,-122.06
Yuba City,CA,City,70117,39.141,-121.618
North Richland Hills,TX,City,69917,32.839,-97.228
Rogers,AR,City,69908,36.333,-94.116
Eastvale,CA,City,69757,33.962,-117.579
Gaithersburg,MD,City,69657,39.144,-77.202
Albany,GA,City,69647,31.577,-84.156
East Orange,NJ,City,69612,40.761,-74.211
Noblesville,IN,City,69604,40.046,-86.014
Lakeville,MN,City,69490,44.65,-93.243
Eau Claire,WI,City,69421,44.811,-91.498
Gary,IN,City,69093,41.6,-87.337
St Cloud,MN,City,68881,45.56,-94.162
Tulare,CA,City,68875,36.208,-119.347
Eagan,MN,City,68855,44.805,-93.167
West Des Moines,IA,City,68723,41.571,-93.709
Union City,NJ,City,68589,40.779,-74.024
Palo Alto,CA,City,68572,37.445,-122.162
Portland,ME,City,68408,43.659,-70.257
Franklin,NJ,Township,68364,40.499,-74.533
Yorba Linda,CA,City,68336,33.889,-117.813
Jackson,TN,City,68205,35.614,-88.819
Weston,FL,City,68107,26.1,-80.383
Palatine,IL,Village,67908,42.11,-88.034
Ankeny,IA,City,67887,41.732,-93.6
Skokie,IL,Village,67824,42.034,-87.747
Haverhill,MA,City,67787,42.777,-71.077
San Marcos,TX,City,67553,29.883,-97.941
Sammamish,WA,City,67455,47.602,-122.035
Waterloo,IA,City,67314,42.498,-92.336
Shawnee,KS,City,67311,39.014,-94.742
Lynwood,CA,City,67265,33.93,-118.212
Georgetown,TX,City,67176,30.633,-97.677
Rockville,MD,City,67117,39.084,-77.153
Middletown,NJ,Township,67106,40.392,-74.099
Schenectady,NY,City,67047,42.812,-73.939
Old Bridge,NJ,Township,66876,40.395,-74.324
Davis,CA,City,66850,38.543,-121.74
Delray Beach,FL,City,66846,26.462,-80.073
Oshkosh,WI,City,66816,44.018,-88.538
Kenner,LA,City,66448,29.994,-90.242
Ames,IA,City,66427,42.023,-93.62
Lodi,CA,City,66348,38.13,-121.272
Malden,MA,City,66263,42.426,-71.067
Novi,MI,City,66243,42.481,-83.476
Madera,CA,City,66224,36.961,-120.061
South San Francisco,CA,City,66105,37.655,-122.41
Gloucester,NJ,Township,66034,39.807,-75.049
West Bloomfield,MI,Charter Township,65888,42.55,-83.409
Alpharetta,GA,City,65818,34.076,-84.295
Janesville,WI,City,65615,42.683,-89.023
Grand Junction,CO,City,65560,39.067,-108.564
Victoria,TX,City,65534,28.799,-97.006
Utica,NY,City,65283,43.101,-75.233
Waltham,MA,City,65218,42.375,-71.236
Lorain,OH,City,65211,41.466,-82.175
Muncie,IN,City,65194,40.194,-85.386
Pflugerville,TX,City,65191,30.439,-97.62
Cheyenne,WY,City,65132,41.14,-104.82
Idaho Falls,ID,City,64818,43.491,-112.039
North Little Rock,AR,City,64591,34.769,-92.267
Laguna Niguel,CA,City,64355,33.527,-117.713
Burnsville,MN,City,64317,44.766,-93.278
San Clemente,CA,City,64293,33.428,-117.613
Brentwood,CA,City,64292,37.933,-121.695
Eden Prairie,MN,City,64198,44.854,-93.47
Bellevue,NE,City,64176,41.143,-95.911
Conway,AR,City,64134,35.089,-92.441
West Hartford,CT,Town,64083,41.771,-72.751
Greenwood,IN,City,63830,39.614,-86.11
Lakewood,WA,City,63612,47.172,-122.518
Coon Rapids,MN,City,63599,45.146,-93.285
Ocala,FL,City,63591,29.187,-82.136
Greenwich,CT,Town,63518,41.076,-73.644
Taylor,MI,City,63409,42.241,-83.27
Hamilton,OH,City,63399,39.399,-84.56
Millcreek,UT,City,63380,40.687,-111.863
North Bergen,NJ,Township,63361,40.805,-74.021
Dearborn Heights,MI,City,63292,42.334,-83.273
Brookline,MA,Town,63191,42.316,-71.15
La Habra,CA,City,63097,33.932,-117.946
Santa Cruz,CA,City,62956,36.974,-122.026
Council Bluffs,IA,City,62799,41.261,-95.85
Moore,OK,City,62793,35.338,-97.487
Bossier City,LA,City,62701,32.521,-93.737
Montebello,CA,City,62640,34.01,-118.108
Porterville,CA,City,62623,36.065,-119.016
Port Orange,FL,City,62596,29.143,-80.993
Rowlett,TX,City,62535,32.905,-96.569
Commerce City,CO,City,62418,39.806,-104.932
Revere,MA,City,62186,42.41,-71.012
Pico Rivera,CA,City,62088,33.983,-118.097
Encinitas,CA,City,62007,33.037,-117.292
Chapel Hill,NC,Town,61960,35.913,-79.056
Springfield,OR,City,61851,44.046,-123.022
Hendersonville,TN,City,61753,36.305,-86.62
Wellington,FL,Village,61637,26.667,-80.257
Pontiac,MI,City,61606,42.639,-83.293
Fairfield,CT,Town,61512,41.175,-73.274
Huntersville,NC,Town,61376,35.411,-80.841
San Rafael,CA,City,61271,37.973,-122.527
Plymouth,MA,Town,61217,41.873,-70.611
Irvington,NJ,Township,61176,40.722,-74.234
Hamden,CT,Town,61169,41.425,-72.915
La Mesa,CA,City,61121,32.765,-117.02
Monterey Park,CA,City,61096,34.063,-118.123
Sanford,FL,City,61051,28.812,-81.268
Jupiter,FL,Town,61047,26.934,-80.094
Euless,TX,City,61032,32.837,-97.083
Woodland,CA,City,61032,38.677,-121.773
Gardena,CA,City,61027,33.882,-118.309
Marietta,GA,City,60972,33.953,-84.55
Meriden,CT,Town,60850,41.538,-72.784
Bristol,CT,Town,60833,41.681,-72.94
Piscataway,NJ,Township,60804,40.543,-74.466
Vineland,NJ,City,60780,39.486,-75.026
Des Plaines,IL,City,60675,42.042,-87.886
Richland,WA,City,60560,46.275,-119.274
Taylorsville,UT,City,60448,40.664,-111.939
Great Falls,MT,City,60442,47.505,-111.303
Hoboken,NJ,City,60419,40.742,-74.032
Cupertino,CA,City,60381,37.318,-122.03
West Allis,WI,City,60325,43.017,-88.007
North Miami,FL,City,60191,25.89,-80.186
Owensboro,KY,City,60183,37.774,-87.111
Youngstown,OH,City,60068,41.1,-80.649
Santee,CA,City,60037,32.839,-116.984
Caldwell,ID,City,59996,43.666,-116.687
Corvallis,OR,City,59922,44.564,-123.262
Petaluma,CA,City,59776,38.233,-122.639
Union,NJ,Township,59728,40.701,-74.263
Manchester,CT,Town,59713,41.776,-72.53
Dubuque,IA,City,59667,42.5,-90.667
Medford,MA,City,59659,42.418,-71.11
Kokomo,IN,City,59604,40.487,-86.131
White Plains,NY,City,59559,41.034,-73.763
Gilroy,CA,City,59520,37.004,-121.568
Queen Creek,AZ,Town,59519,33.249,-111.634
Taunton,MA,City,59408,41.902,-71.093
Leander,TX,City,59202,30.579,-97.853
Stonecrest,GA,city,59194,33.706,-84.17
Palm Beach Gardens,FL,City,59182,26.82,-80.118
Hempstead,NY,Village,59169,40.709,-73.625
Grand Forks,ND,City,59166,47.924,-97.031
Casper,WY,City,59038,42.85,-106.325
St Cloud,FL,City,58964,28.246,-81.292
St Clair Shores,MI,City,58874,42.496,-82.889
Apex,NC,Town,58780,35.732,-78.85
Margate,FL,City,58712,26.244,-80.207
Orland Park,IL,Village,58703,41.616,-87.853
Springfield,OH,City,58662,39.925,-83.808
Carson City,NV,Consolidated Municipality,58639,39.164,-119.767
Shoreline,WA,City,58608,47.756,-122.346
Blue Springs,MO,City,58603,39.018,-94.278
Jackson,NJ,Township,58544,40.097,-74.373
Parker,CO,Town,58512,39.518,-104.761
Midwest City,OK,City,58409,35.45,-97.406
Terre Haute,IN,City,58389,39.466,-87.414
Oak Lawn,IL,Village,58362,41.719,-87.749
Bowie,MD,City,58329,38.978,-76.742
Royal Oak,MI,City,58211,42.49,-83.144
Maricopa,AZ,City,58125,33.057,-112.048
Lancaster,PA,City,58039,40.038,-76.306
Hanford,CA,City,57990,36.328,-119.646
Decatur,AL,City,57938,34.604,-86.985
Kettering,OH,City,57862,39.69,-84.169
Coconut Creek,FL,City,57833,26.252,-80.177
Bartlett,TN,City,57786,35.204,-89.869
St Peters,MO,City,57732,38.785,-90.602
Wylie,TX,City,57526,33.014,-96.539
Weymouth,MA,City,57437,42.218,-70.937
Lenexa,KS,City,57434,38.957,-94.728
Burlington,NC,City,57303,36.094,-79.436
Berwyn,IL,City,57250,41.851,-87.793
Lake Havasu City,AZ,City,57144,34.477,-114.338
Fountain Valley,CA,City,57047,33.709,-117.954
Highland,CA,City,56999,34.128,-117.209
Madison,AL,City,56933,34.677,-86.752
Mount Prospect,IL,Village,56852,42.066,-87.937
Arcadia,CA,City,56681,34.136,-118.041
Albany,OR,City,56472,44.635,-123.104
Apple Valley,MN,City,56374,44.732,-93.218
Pocatello,ID,City,56320,42.862,-112.451
National City,CA,City,56173,32.676,-117.098
Parsippany-Troy Hills,NJ,Township,56162,40.865,-74.397
DeSoto,TX,City,56145,32.59,-96.857
Port Arthur,TX,City,56039,29.871,-93.936
Tinley Park,IL,Village,55971,41.575,-87.784
Bradenton,FL,City,55698,27.495,-82.571
Ypsilanti,MI,Charter Township,55670,42.2,-83.614
Smyrna,GA,City,55663,33.886,-84.516
Olympia,WA,City,55605,47.043,-122.9
West Haven,CT,Town,55584,41.275,-72.96
Chicopee,MA,City,55560,42.145,-72.609
Kingsport,TN,City,55442,36.547,-82.56
Perth Amboy,NJ,City,55436,40.506,-74.266
Valdosta,GA,City,55378,30.832,-83.279
New Brunswick,NJ,City,55266,40.496,-74.446
Brookhaven,GA,City,55161,33.861,-84.33
Herriman,UT,City,55144,40.514,-112.033
Diamond Bar,CA,City,55072,34.029,-117.811
Huntington Park,CA,City,54883,33.982,-118.225
Apopka,FL,City,54873,28.672,-81.511
Sarasota,FL,City,54842,27.336,-82.532
Wayne,NJ,Township,54838,40.948,-74.241
Anderson,IN,City,54788,40.105,-85.678
Southaven,MS,City,54648,34.984,-90.016
Coeur dAlene,ID,City,54628,47.674,-116.784
Plainfield,NJ,City,54586,40.619,-74.421
Oak Park,IL,Village,54583,41.887,-87.785
Yucaipa,CA,City,54542,34.034,-117.041
Tigard,OR,City,54539,45.431,-122.771
Peabody,MA,City,54481,42.526,-70.927
Rocky Mount,NC,City,54341,35.942,-77.795
Pensacola,FL,City,54312,30.409,-87.214
Kentwood,MI,City,54304,42.869,-85.645
Bentonville,AR,City,54164,36.372,-94.209
Manhattan,KS,City,54100,39.186,-96.576
Georgetown,MI,Charter Township,54091,42.907,-85.834
Wheaton,IL,City,53970,41.867,-88.106
Elkhart,IN,City,53923,41.685,-85.974
West Sacramento,CA,City,53915,38.58,-121.531
Colton,CA,City,53909,34.074,-117.314
San Jacinto,CA,City,53898,33.787,-116.959
Minnetonka,MN,City,53781,44.914,-93.503
Paramount,CA,City,53733,33.889,-118.16
Galveston,TX,City,53695,29.305,-94.794
Casa Grande,AZ,City,53658,32.879,-111.757
Bonita Springs,FL,City,53644,26.346,-81.779
Howell,NJ,Township,53537,40.162,-74.206
Lacey,WA,City,53526,47.038,-122.829
Edina,MN,City,53494,44.89,-93.35
Bozeman,MT,City,53293,45.679,-111.037
Novato,CA,City,53225,38.108,-122.57
Grand Island,NE,City,53131,40.924,-98.339
Kannapolis,NC,City,53114,35.489,-80.628
Bloomfield,NJ,Township,53105,40.793,-74.191
Pinellas Park,FL,City,53093,27.839,-82.7
Smyrna,TN,Town,53070,35.982,-86.52
Methuen,MA,City,53059,42.729,-71.189
Beaumont,CA,City,53036,33.929,-116.977
West New York,NJ,Town,52912,40.787,-74.013
Logan,UT,City,52778,41.731,-111.835
Normal,IL,Town,52736,40.511,-88.995
Battle Creek,MI,City,52721,42.319,-85.182
La Crosse,WI,City,52680,43.812,-91.251
Elyria,OH,City,52656,41.368,-82.107
Watsonville,CA,City,52590,36.91,-121.756
Glendora,CA,City,52558,34.136,-117.865
Florissant,MO,City,52533,38.789,-90.323
Hoffman Estates,IL,Village,52530,42.047,-88.08
Stratford,CT,Town,52355,41.212,-73.134
Aliso Viejo,CA,City,52176,33.575,-117.725
Burien,WA,City,52066,47.467,-122.339
Marana,AZ,Town,51908,32.436,-111.209
Texas City,TX,City,51898,29.384,-94.903
Placentia,CA,City,51824,33.872,-117.87
Harrisonburg,VA,City,51814,38.449,-78.869
Twin Falls,ID,City,51807,42.556,-114.47
Joplin,MO,City,51762,37.084,-94.513
Dunwoody,GA,City,51683,33.946,-84.334
Cathedral City,CA,City,51493,33.78,-116.467
Delano,CA,City,51428,35.77,-119.246
Troy,NY,City,51401,42.724,-73.692
Collierville,TN,Town,51324,35.042,-89.664
Enid,OK,City,51308,36.397,-97.878
Covina,CA,City,51268,34.09,-117.89
Rosemead,CA,City,51185,34.081,-118.073
Palm Desert,CA,City,51163,33.721,-116.374
Cuyahoga Falls,OH,City,51114,41.134,-81.484
Mishawaka,IN,City,51063,41.661,-86.181
East Hartford,CT,Town,51045,41.764,-72.614
Draper,UT,City,51017,40.525,-111.864
Middletown,OH,City,50987,39.517,-84.405
Lakewood,OH,City,50942,41.485,-81.8
East Honolulu,HI,Census-Designated Place,50922,21.286,-157.707
Summerville,SC,Town,50915,33.019,-80.177
Murray,UT,City,50637,40.659,-111.888
Grapevine,TX,City,50631,32.934,-97.078
Milford,CT,Town,50558,41.231,-73.07
Columbus,IN,City,50474,39.201,-85.921
Downers Grove,IL,Village,50247,41.796,-88.01
Mooresville,NC,Town,50193,35.585,-80.81
Cypress,CA,City,50151,33.817,-118.037
Harrisburg,PA,City,50099,40.263,-76.887
St Louis Park,MN,City,50010,44.948,-93.348
Spring Hill,TN,City,50005,35.752,-86.929
Azusa,CA,City,50000,34.134,-117.907
Chesterfield,MO,City,49999,38.664,-90.578
Newark,OH,City,49934,40.058,-82.403
Sheboygan,WI,City,49929,43.751,-87.713
Bedford,TX,City,49928,32.845,-97.133
Lincoln,CA,City,49757,38.892,-121.293
East Brunswick,NJ,Township,49715,40.421,-74.414
Euclid,OH,City,49692,41.597,-81.527
Cerritos,CA,City,49578,33.859,-118.064
Redford,MI,Charter Township,49504,42.383,-83.295
Biloxi,MS,City,49449,30.395,-88.886
Jeffersonville,IN,City,49447,38.274,-85.742
Lawrence,IN,City,49370,39.836,-86.027
Dublin,OH,City,49328,40.1,-83.114
Ceres,CA,City,49302,37.595,-120.957
Coral Gables,FL,City,49248,25.723,-80.266
Winter Haven,FL,City,49219,28.022,-81.733
Cedar Hill,TX,City,49148,32.59,-96.956
Everett,MA,City,49075,42.407,-71.056
Barnstable,MA,City,48916,41.655,-70.28
Portage,MI,City,48891,42.201,-85.589
Charleston,WV,City,48864,38.35,-81.633
West Orange,NJ,Township,48843,40.79,-74.261
Poway,CA,City,48841,32.956,-117.037
Titusville,FL,City,48789,28.614,-80.808
Hattiesburg,MS,City,48730,31.327,-89.29
Glenview,IL,Village,48705,42.073,-87.802
Washington,NJ,Township,48677,39.742,-75.071
Niagara Falls,NY,City,48671,43.089,-79.063
Monroe,NJ,Township,48594,40.303,-74.439
Roswell,NM,City,48422,33.393,-104.523
Stillwater,OK,City,48394,36.116,-97.059
Wauwatosa,WI,City,48387,43.05,-88.007
Minot,ND,City,48377,48.236,-101.293
Leesburg,VA,Town,48250,39.115,-77.565
Bothell,WA,City,48161,47.76,-122.207
La Mirada,CA,City,48008,33.917,-118.012
Binghamton,NY,City,47969,42.099,-75.913
Rancho Santa Margarita,CA,City,47949,33.644,-117.598
Wilson,NC,City,47851,35.725,-77.91
Egg Harbor,NJ,Township,47842,39.372,-74.64
East Lansing,MI,City,47741,42.735,-84.484
Middletown,CT,Town,47717,41.53,-72.649
Roseville,MI,City,47710,42.497,-82.937
Monroe,LA,City,47702,32.502,-92.117
Burleson,TX,City,47641,32.543,-97.321
Wake Forest,NC,Town,47601,35.979,-78.509
Mansfield,OH,City,47534,40.759,-82.516
Newark,CA,City,47529,37.537,-122.031
Mentor,OH,City,47450,41.666,-81.34
Cleveland,TN,City,47356,35.16,-84.877
Brea,CA,City,47325,33.92,-117.898
Fort Pierce,FL,City,47297,27.447,-80.326
Ocoee,FL,City,47295,28.57,-81.544
Rockwall,TX,City,47251,32.931,-96.46
East Providence,RI,City,47139,41.814,-71.37
Oro Valley,AZ,Town,47070,32.41,-110.996
San Luis Obispo,CA,City,47063,35.282,-120.659
South Brunswick,NJ,Township,47043,40.375,-74.517
Winter Garden,FL,City,46964,28.566,-81.586
Salina,KS,City,46889,38.841,-97.609
Huntington,WV,City,46842,38.421,-82.444
Evesham,NJ,Township,46826,39.878,-74.895
Prescott Valley,AZ,Town,46785,34.603,-112.316
Farmington,NM,City,46624,36.729,-108.208
Charlottesville,VA,City,46553,38.031,-78.482
Beavercreek,OH,City,46549,39.728,-84.057
Strongsville,OH,City,46491,41.314,-81.835
Attleboro,MA,City,46461,41.945,-71.284
Little Elm,TX,City,46453,33.154,-96.943
Westfield,IN,City,46410,40.043,-86.128
Arlington,MA,Town,46308,42.421,-71.163
Altamonte Springs,FL,City,46231,28.664,-81.374
Haltom City,TX,City,46073,32.795,-97.273
Hackensack,NJ,City,46030,40.879,-74.044
Bridgewater,NJ,Township,45977,40.611,-74.622
Goose Creek,SC,City,45946,32.996,-80.039
Huntsville,TX,City,45941,30.724,-95.551
Prescott,AZ,City,45827,34.542,-112.469
Elmhurst,IL,City,45786,41.9,-87.94
Keller,TX,City,45776,32.935,-97.254
Bountiful,UT,City,45762,40.889,-111.881
Kyle,TX,City,45697,29.989,-97.875
Littleton,CO,City,45652,39.614,-105.016
Urbandale,IA,City,45580,41.629,-93.712
Los Banos,CA,City,45532,37.06,-120.848
Morgan Hill,CA,City,45483,37.13,-121.654
Cutler Bay,FL,Town,45425,25.578,-80.338
Brentwood,TN,City,45373,36.033,-86.789
Sayreville,NJ,Borough,45345,40.459,-74.361
Cleveland Heights,OH,City,45312,41.52,-81.556
Sierra Vista,AZ,City,45308,31.555,-110.3
Pearl City,HI,Census-Designated Place,45295,21.394,-157.97
Riverton,UT,City,45285,40.522,-111.939
Alexandria,LA,City,45275,31.311,-92.445
Manchester,NJ,Township,45115,39.948,-74.406
Fairfield,OH,City,44907,39.338,-84.56
Blacksburg,VA,Town,44826,37.229,-80.414
York,PA,City,44800,39.962,-76.728
North Lauderdale,FL,City,44794,26.217,-80.226
Plainfield,IL,Village,44762,41.609,-88.204
Burlington,VT,City,44743,44.476,-73.214
Fond du Lac,WI,City,44678,43.779,-88.447
Mount Laurel,NJ,Township,44633,39.948,-74.894
West Lafayette,IN,City,44595,40.424,-86.908
Palm Springs,CA,City,44575,33.823,-116.546
The Colony,TX,City,44534,33.088,-96.887
Moorhead,MN,City,44505,46.874,-96.768
Mankato,MN,City,44488,44.166,-94.0
Salem,MA,City,44480,42.52,-70.896
Lombard,IL,Village,44476,41.887,-88.018
Freeport,NY,Village,44472,40.658,-73.584
Lompoc,CA,City,44444,34.639,-120.458
Gallatin,TN,City,44431,36.388,-86.446
Wallingford,CT,Town,44396,41.459,-72.8
Rohnert Park,CA,City,44390,38.339,-122.701
Wentzville,MO,City,44372,38.811,-90.853
Wilkes Barre,PA,City,44328,41.246,-75.882
El Centro,CA,City,44322,32.793,-115.563
Bloomfield,MI,Charter Township,44253,42.57,-83.294
Oakland Park,FL,City,44229,26.174,-80.139
Saginaw,MI,Charter Township,44202,43.445,-84.022
Hilo,HI,Census-Designated Place,44186,19.724,-155.087
Greenacres,FL,City,43990,26.626,-80.134
Concord,NH,City,43976,43.204,-71.536
Altoona,PA,City,43963,40.515,-78.402
Campbell,CA,City,43959,37.287,-121.95
Pittsfield,MA,City,43927,42.448,-73.253
Meridian,MI,Charter Township,43916,42.726,-84.406
San Bruno,CA,City,43908,37.631,-122.411
North Brunswick,NJ,Township,43905,40.446,-74.491
Leominster,MA,City,43782,42.526,-71.76
Berkeley,NJ,Township,43754,39.943,-74.266
Linden,NJ,City,43738,40.631,-74.252
Shakopee,MN,City,43698,44.798,-93.525
North Miami Beach,FL,City,43676,25.933,-80.162
Sherman,TX,City,43645,33.637,-96.609
Eagle Mountain,UT,City,43623,40.305,-112.004
Danville,CA,Town,43582,37.822,-122.0
Hagerstown,MD,City,43527,39.642,-77.72
Bremerton,WA,City,43505,47.565,-122.627
Southington,CT,Town,43501,41.607,-72.876
Hickory,NC,City,43490,35.732,-81.338
Waipahu,HI,Census-Designated Place,43485,21.383,-158.022
Sumter,SC,City,43463,33.92,-80.342
Huber Heights,OH,City,43439,39.847,-84.114
Oakley,CA,City,43357,37.998,-121.714
Hillsborough,NJ,Township,43276,40.51,-74.652
Woonsocket,RI,City,43240,42.0,-71.516
Jefferson City,MO,City,43228,38.578,-92.171
Buffalo Grove,IL,Village,43212,42.157,-87.964
Ormond Beach,FL,City,43080,29.284,-81.059
Commerce,MI,Charter Township,43058,42.583,-83.497
Clermont,FL,City,43021,28.558,-81.765
Moline,IL,City,42985,41.507,-90.515
Coppell,TX,City,42983,32.969,-96.994
Puyallup,WA,City,42973,47.192,-122.294
Edmonds,WA,City,42853,47.811,-122.377
Manassas,VA,City,42772,38.751,-77.472
Beverly,MA,City,42670,42.55,-70.883
Spanish Fork,UT,City,42602,40.11,-111.655
Danville,VA,City,42590,36.588,-79.392
Newnan,GA,City,42549,33.374,-84.799
Midland,MI,City,42547,43.613,-84.246
Belleville,IL,City,42404,38.514,-89.984
Gainesville,GA,City,42296,34.299,-83.827
Rancho Palos Verdes,CA,City,42287,33.745,-118.389
Peachtree Corners,GA,City,42243,33.971,-84.221
Lake Worth Beach,FL,City,42219,26.616,-80.057
Enfield,CT,Town,42141,41.987,-72.553
Billerica,MA,Town,42119,42.563,-71.277
Maplewood,MN,City,42088,44.956,-93.005
Schertz,TX,City,42002,29.552,-98.27
Kearny,NJ,Town,41999,40.77,-74.146
Fitchburg,MA,City,41946,42.585,-71.804
Coachella,CA,City,41941,33.681,-116.177
Marlborough,MA,City,41793,42.347,-71.549
Columbia,TN,City,41690,35.615,-87.034
Hollister,CA,City,41678,36.852,-121.402
Marion,IA,City,41535,42.033,-91.599
Marlboro,NJ,Township,41502,40.346,-74.263
Brookfield,WI,City,41464,43.036,-88.115
Bullhead City,AZ,City,41348,35.148,-114.568
Germantown,TN,City,41333,35.093,-89.809
Delaware,OH,City,41302,40.299,-83.068
Milton,GA,City,41296,34.118,-84.27
Lancaster,TX,City,41275,32.592,-96.756
Pine Bluff,AR,City,41253,34.229,-92.003
Grove City,OH,City,41252,39.882,-83.094
Teaneck,NJ,Township,41246,40.893,-74.011
Holly Springs,NC,Town,41239,35.651,-78.834
Hallandale Beach,FL,City,41217,25.985,-80.148
Friendswood,TX,City,41213,29.529,-95.201
Waxahachie,TX,City,41140,32.386,-96.847
Bartlett,IL,Village,41105,41.992,-88.185
Reynoldsburg,OH,City,41076,39.955,-82.812
Covington,KY,City,40961,39.084,-84.508
Montclair,NJ,Township,40921,40.819,-74.216
Manalapan,NJ,Township,40905,40.259,-74.353
Woburn,MA,City,40876,42.48,-71.152
Shelton,CT,Town,40869,41.308,-73.148
Westfield,MA,City,40834,42.121,-72.749
Annapolis,MD,City,40812,38.978,-76.489
Chelsea,MA,City,40787,42.393,-71.034
Culver City,CA,City,40779,34.021,-118.397
Lake Oswego,OR,City,40731,45.419,-122.664
Cedar Falls,IA,City,40713,42.536,-92.445
Duncanville,TX,City,40706,32.652,-96.908
Valley Stream,NY,Village,40634,40.661,-73.704
Lancaster,OH,City,40552,39.714,-82.602
Kailua,HI,Census-Designated Place,40514,21.393,-157.74
Hobbs,NM,City,40508,32.701,-103.136
State College,PA,Borough,40501,40.794,-77.862
New Berlin,WI,City,40451,42.976,-88.108
Hurst,TX,City,40413,32.824,-97.179
Findlay,OH,City,40313,41.043,-83.65
DeKalb,IL,City,40290,41.93,-88.75
Crystal Lake,IL,City,40269,42.241,-88.316
Lincoln Park,MI,City,40245,42.25,-83.177
Aventura,FL,City,40242,25.955,-80.147
Fort Lee,NJ,Borough,40191,40.851,-73.97
Florence,AL,City,40184,34.8,-87.677
Weslaco,TX,City,40160,26.163,-97.991
Norwich,CT,Town,40125,41.551,-72.088
Brighton,CO,City,40083,39.985,-104.818
Oviedo,FL,City,40059,28.67,-81.208
Issaquah,WA,City,40051,47.53,-122.037
Hutchinson,KS,City,40006,38.053,-97.932
Indian Trail,NC,Town,39997,35.084,-80.661
Wausau,WI,City,39994,44.96,-89.627
Winslow,NJ,Township,39907,39.676,-74.867
Florence,SC,City,39899,34.197,-79.766
Romeoville,IL,Village,39863,41.64,-88.081
Carol Stream,IL,Village,39854,41.916,-88.13
Grand Blanc,MI,Charter Township,39846,42.899,-83.663
Plant City,FL,City,39764,28.016,-82.123
Olive Branch,MS,City,39711,34.963,-89.829
Park Ridge,IL,City,39656,42.009,-87.831
Streamwood,IL,Village,39577,42.022,-88.182
San Gabriel,CA,City,39568,34.096,-118.105
Cape Girardeau,MO,City,39540,37.303,-89.519
Bell Gardens,CA,City,39501,33.965,-118.152
Quincy,IL,City,39463,39.933,-91.409
Rexburg,ID,City,39409,43.826,-111.784
Dover,DE,City,39403,39.156,-75.524
Keizer,OR,City,39376,44.989,-123.027
Roy,UT,City,39306,41.162,-112.026
Mount Juliet,TN,City,39289,36.2,-86.519
Amherst,MA,Town,39263,42.342,-72.504
Warren,OH,City,39201,41.237,-80.819
Westerville,OH,City,39190,40.127,-82.932
Grants Pass,OR,City,39189,42.44,-123.327
Pittsfield,MI,Charter Township,39147,42.2,-83.727
Braintree,MA,City,39143,42.208,-71.004
Wheeling,IL,Village,39137,42.137,-87.928
Bettendorf,IA,City,39102,41.527,-90.5
Vestavia Hills,AL,City,39102,33.447,-86.791
Royal Palm Beach,FL,Village,38932,26.706,-80.229
Cottage Grove,MN,City,38839,44.827,-92.94
Phenix City,AL,City,38816,32.471,-85.002
Spartanburg,SC,City,38732,34.95,-81.932
La Vergne,TN,City,38719,36.019,-86.573
Pacifica,CA,City,38640,37.609,-122.496
Calexico,CA,City,38633,32.679,-115.499
West Fargo,ND,City,38626,46.87,-96.9
Lynnwood,WA,City,38568,47.821,-122.315
Clovis,NM,City,38567,34.401,-103.205
Menomonee Falls,WI,Village,38527,43.179,-88.116
Apache Junction,AZ,City,38499,33.413,-111.546
Atlantic City,NJ,City,38497,39.364,-74.423
Post Falls,ID,City,38485,47.715,-116.948
Lebanon,TN,City,38431,36.208,-86.291
Groton,CT,Town,38411,41.362,-72.049
East Point,GA,City,38358,33.677,-84.441
Winter Springs,FL,City,38342,28.676,-81.27
Urbana,IL,City,38336,40.112,-88.207
Shrewsbury,MA,Town,38325,42.284,-71.716
Muskegon,MI,City,38318,43.234,-86.248
Rosenberg,TX,City,38282,29.557,-95.809
Holland,MI,Charter Township,38276,42.829,-86.085
Peachtree City,GA,City,38244,33.396,-84.591
Owasso,OK,City,38240,36.266,-95.855
Holyoke,MA,City,38238,42.206,-72.609
Belleville,NJ,Township,38222,40.796,-74.159
Orion,MI,Charter Township,38206,42.752,-83.274
Northglenn,CO,City,38131,39.903,-104.978
La Puente,CA,City,38062,34.02,-117.951
Adelanto,CA,City,38046,34.579,-117.41
Carpentersville,IL,Village,37983,42.121,-88.258
Stanton,CA,City,37962,33.803,-117.993
Monrovia,CA,City,37931,34.145,-118.001
Hot Springs,AR,City,37930,34.504,-93.055
Portage,IN,City,37926,41.576,-87.181
Tupelo,MS,City,37923,34.257,-88.705
Montclair,CA,City,37865,34.078,-117.69
New Albany,IN,City,37841,38.284,-85.823
Longview,WA,City,37818,46.138,-122.934
Galloway,NJ,Township,37813,39.468,-74.442
Greenfield,WI,City,37803,42.966,-88.008
Prattville,AL,City,37781,32.462,-86.451
Pleasant Grove,UT,City,37726,40.364,-111.739
Rome,GA,City,37713,34.255,-85.172
Saratoga Springs,UT,City,37696,40.333,-111.909
Hilton Head Island,SC,Town,37661,32.178,-80.728
Riviera Beach,FL,City,37604,26.774,-80.055
Oregon City,OR,City,37572,45.357,-122.607
La Quinta,CA,City,37558,33.663,-116.308
Hanover Park,IL,Village,37470,41.999,-88.145
Kaneohe,HI,Census-Designated Place,37430,21.418,-157.802
DeLand,FL,City,37351,29.028,-81.303
Leavenworth,KS,City,37351,39.319,-94.914
Bartlesville,OK,City,37290,36.751,-95.978
Martinez,CA,City,37287,38.018,-122.134
Claremont,CA,City,37266,34.095,-117.719
Ewing,NJ,Township,37264,40.267,-74.788
Lewiston,ME,City,37121,44.101,-70.215
Hilliard,OH,City,37114,40.034,-83.16
Rock Island,IL,City,37108,41.509,-90.576
Georgetown,KY,City,37086,38.21,-84.56
Pennsauken,NJ,Township,37074,39.974,-75.039
Natick,MA,Town,37006,42.288,-71.35
Tucker,GA,City,37005,33.853,-84.214
Richfield,MN,City,36994,44.883,-93.283
Estero,FL,Village,36939,26.431,-81.811
Muskogee,OK,City,36878,35.748,-95.369
Wildomar,CA,City,36875,33.604,-117.273
Trumbull,CT,Town,36827,41.263,-73.214
Franklin,WI,City,36816,42.889,-88.038
Upper Arlington,OH,City,36800,39.999,-83.062
Kearns,UT,Metro Township,36723,40.653,-112.006
Independence,MI,Charter Township,36686,42.75,-83.373
Copperas Cove,TX,City,36670,31.124,-97.902
Beloit,WI,City,36657,42.499,-89.036
Andover,MA,Town,36569,42.647,-71.155
Oak Creek,WI,City,36497,42.894,-87.912
Temple City,CA,City,36494,34.107,-118.061
Merrillville,IN,Town,36444,41.486,-87.336
Cumberland,RI,Town,36405,41.979,-71.422
Chelmsford,MA,Town,36392,42.593,-71.365
Moorpark,CA,City,36284,34.285,-118.882
Roseville,MN,City,36254,45.006,-93.157
Texarkana,TX,City,36193,33.421,-94.046
Dunedin,FL,City,36068,28.019,-82.772
Calumet City,IL,City,36033,41.615,-87.54
Midvale,UT,City,36028,40.611,-111.9
Marion,OH,City,35999,40.589,-83.129
Farmers Branch,TX,City,35991,32.924,-96.893
Sun Prairie,WI,City,35967,43.183,-89.214
Lauderdale Lakes,FL,City,35954,26.169,-80.203
El Mirage,AZ,City,35805,33.606,-112.325
Inver Grove Heights,MN,City,35801,44.848,-93.043
West Hollywood,CA,City,35757,34.091,-118.361
Norristown,PA,Borough,35748,40.115,-75.345
Tooele,UT,City,35742,40.531,-112.299
Gahanna,OH,City,35726,40.019,-82.878
Richmond,IN,City,35720,39.829,-84.893
Addison,IL,Village,35702,41.92,-87.989
Coventry,RI,Town,35688,41.693,-71.663
Myrtle Beach,SC,City,35682,33.693,-78.883
Lake Stevens,WA,City,35630,48.002,-122.093
Lima,OH,City,35579,40.74,-84.105
Salisbury,NC,City,35540,35.667,-80.47
Torrington,CT,Town,35515,41.831,-73.134
Wenatchee,WA,City,35508,47.425,-120.311
Manhattan Beach,CA,City,35506,33.885,-118.411
Brunswick,OH,City,35426,41.238,-81.841
Wildwood,MO,City,35417,38.597,-90.64
Freehold,NJ,Township,35369,40.207,-74.303
Watertown,MA,City,35329,42.365,-71.184
Greer,SC,City,35308,34.939,-82.227
San Juan,TX,City,35294,26.189,-98.155
North Ridgeville,OH,City,35280,41.39,-82.019
Springville,UT,City,35268,40.167,-111.611
San Luis,AZ,City,35257,32.494,-114.784
Cedar City,UT,City,35235,37.677,-113.062
Northbrook,IL,Village,35222,42.127,-87.829
Mount Vernon,WA,City,35219,48.418,-122.339
San Juan Capistrano,CA,City,35196,33.502,-117.663
Glastonbury,CT,Town,35159,41.689,-72.549
Midlothian,TX,City,35125,32.482,-96.994
La Porte,TX,City,35124,29.665,-95.019
University City,MO,City,35065,38.671,-90.326
Woodstock,GA,City,35065,34.101,-84.519
Meridian,MS,City,35052,32.364,-88.7
Long Beach,NY,City,35029,40.589,-73.664
Benton,AR,City,35014,34.563,-92.587
Randolph,MA,Town,34984,42.173,-71.045
Fair Lawn,NJ,Borough,34927,40.939,-74.123
San Dimas,CA,City,34924,34.107,-117.807
Hinesville,GA,City,34891,31.847,-81.596
University Place,WA,City,34866,47.235,-122.55
Cookeville,TN,City,34842,36.165,-85.513
Mason,OH,City,34792,39.36,-84.309
College Park,MD,City,34740,38.981,-76.938
Del Rio,TX,City,34673,29.36,-100.899
Parkland,FL,City,34670,26.311,-80.253
Douglasville,GA,City,34650,33.751,-84.747
Manitowoc,WI,City,34626,44.091,-87.658
Plainfield,IN,Town,34625,39.703,-86.403
Pleasant Hill,CA,City,34613,37.945,-122.06
Oswego,IL,Village,34585,41.683,-88.352
Richmond,KY,City,34585,37.747,-84.294
Monroe,NC,City,34562,34.981,-80.549
Goshen,IN,City,34517,41.586,-85.834
Fairborn,OH,City,34510,39.822,-84.021
Deer Park,TX,City,34495,29.7,-95.124
Butte Silver Bow,MT,Consolidated Government,34494,46.014,-112.536
Stow,OH,City,34483,41.159,-81.44
Lexington,MA,Town,34454,42.446,-71.234
Orange,NJ,Township,34447,40.77,-74.232
Dalton,GA,City,34417,34.77,-84.968
Cooper City,FL,City,34401,26.057,-80.272
McMinnville,OR,City,34319,45.21,-123.198
Eastpointe,MI,City,34318,42.465,-82.958
Derry,NH,Town,34317,42.889,-71.292
Socorro,TX,City,34306,31.654,-106.304
Westlake,OH,City,34228,41.456,-81.922
Lewiston,ID,City,34203,46.422,-117.027
Woodridge,IL,Village,34158,41.751,-88.031
Fuquay Varina,NC,Town,34152,35.59,-78.799
Valparaiso,IN,City,34151,41.468,-87.061
Lufkin,TX,City,34143,31.339,-94.729
Sahuarita,AZ,Town,34134,31.969,-110.97
North Providence,RI,Town,34114,41.858,-71.466
Walla Walla,WA,City,34060,46.067,-118.339
Gadsden,AL,City,33945,34.014,-86.005
Leawood,KS,City,33902,38.906,-94.615
Crown Point,IN,City,33899,41.418,-87.364
Foster City,CA,City,33805,37.558,-122.264
Kearney,NE,City,33790,40.698,-99.082
Dartmouth,MA,Town,33783,41.596,-70.993
Brooklyn Center,MN,City,33782,45.076,-93.333
Menlo Park,CA,City,33780,37.454,-122.183
Englewood,CO,City,33659,39.646,-104.988
Goldsboro,NC,City,33657,35.386,-77.996
Cottonwood Heights,UT,City,33617,40.624,-111.825
Bethel Park,PA,Municipality,33577,40.328,-80.038
Bell,CA,City,33559,33.975,-118.188
Plainfield,MI,Charter Township,33535,43.073,-85.61
Los Gatos,CA,Town,33529,37.231,-121.965
Petersburg,VA,City,33458,37.226,-77.403
Statesboro,GA,City,33438,32.449,-81.783
Houma,LA,City,33406,29.598,-90.713
Gillette,WY,City,33403,44.293,-105.504
American Fork,UT,City,33337,40.377,-111.799
Alabaster,AL,City,33284,33.244,-86.816
Redmond,OR,City,33274,44.273,-121.174
Franklin,MA,City,33261,42.083,-71.397
Brownstown,MI,Charter Township,33194,42.151,-83.281
Glendale Heights,IL,Village,33176,41.918,-88.079
Delta,MI,Charter Township,33119,42.736,-84.685
Dana Point,CA,City,33107,33.467,-117.698
Harker Heights,TX,City,33097,31.08,-97.655
St Charles,IL,City,33081,41.914,-88.312
Lawrence,NJ,Township,33077,40.3,-74.721
Spring Valley,NY,Village,33066,41.112,-74.045
Salisbury,MD,City,33050,38.365,-75.601
Kennesaw,GA,City,33036,34.023,-84.615
Canton,GA,City,32973,34.237,-84.491
Kiryas Joel,NY,Village,32954,41.341,-74.169
Kaysville,UT,City,32945,41.035,-111.939
Panama City,FL,City,32939,30.155,-85.66
Pullman,WA,City,32901,46.73,-117.182
Des Moines,WA,City,32888,47.402,-122.325
Elk Grove Village,IL,Village,32812,42.002,-87.959
Dover,NH,City,32741,43.198,-70.874
Sherwood,AR,City,32731,34.82,-92.234
Windsor,CO,Town,32716,40.48,-104.908
Beverly Hills,CA,City,32701,34.073,-118.4
Goleta,CA,City,32690,34.436,-119.827
Kingman,AZ,City,32689,35.19,-114.053
Bay City,MI,City,32661,43.596,-83.888
Garfield,NJ,City,32655,40.881,-74.113
Dracut,MA,Town,32617,42.683,-71.271
Chester,PA,City,32605,39.85,-75.36
Andover,MN,City,32601,45.245,-93.306
Falmouth,MA,Town,32517,41.601,-70.595
Fairbanks,AK,City,32515,64.844,-147.719
Desert Hot Springs,CA,City,32512,33.961,-116.501
Rochester,NH,City,32492,43.304,-70.976
Savage,MN,City,32465,44.777,-93.336
North Olmsted,OH,City,32442,41.419,-81.915
Wheat Ridge,CO,City,32398,39.773,-105.081
Seaside,CA,City,32366,36.609,-121.846
OFallon,IL,City,32289,38.592,-89.911
Cibolo,TX,City,32276,29.576,-98.236
Juneau,AK,City and Borough,32255,58.3,-134.408
Carlsbad,NM,City,32238,32.418,-104.226
Nacogdoches,TX,City,32147,31.603,-94.655
Massillon,OH,City,32146,40.797,-81.522
Syracuse,UT,City,32141,41.089,-112.065
Rome,NY,City,32127,43.212,-75.456
San Pablo,CA,City,32127,37.962,-122.345
Ithaca,NY,City,32108,42.44,-76.499
Helena,MT,City,32091,46.59,-112.038
Needham,MA,Town,32091,42.285,-71.237
Michigan City,IN,City,32075,41.714,-86.9
Aiken,SC,City,32025,33.561,-81.719
Deptford,NJ,Township,31977,39.826,-75.112
Atwater,CA,City,31970,37.345,-120.607
Holladay,UT,City,31965,40.668,-111.824
Florence,KY,City,31946,38.999,-84.627
South Kingstown,RI,Town,31931,41.452,-71.543
Clearfield,UT,City,31909,41.114,-112.026
Maryville,TN,City,31907,35.756,-83.971
Willingboro,NJ,Township,31889,40.029,-74.89
Duluth,GA,City,31873,34.003,-84.144
Lawndale,CA,City,31807,33.887,-118.352
Bangor,ME,City,31753,44.801,-68.771
West Bend,WI,City,31752,43.425,-88.184
Pekin,IL,City,31731,40.568,-89.641
Dania Beach,FL,City,31723,26.052,-80.144
Port Chester,NY,Village,31693,41.002,-73.666
Long Branch,NJ,City,31667,40.305,-73.983
Los Altos,CA,City,31625,37.38,-122.115
Norwood,MA,Town,31611,42.188,-71.194
Poughkeepsie,NY,City,31577,41.704,-73.929
Mundelein,IL,Village,31560,42.27,-88.004
Naugatuck,CT,Town,31519,41.489,-73.068
Paso Robles,CA,City,31490,35.623,-120.688
SeaTac,WA,City,31454,47.445,-122.283
Cornelius,NC,Town,31412,35.481,-80.858
Laramie,WY,City,31407,41.311,-105.595
Oak Ridge,TN,City,31402,36.026,-84.24
Elizabethtown,KY,City,31394,37.702,-85.869
Burlingame,CA,City,31386,37.584,-122.366
Shawnee,OK,City,31377,35.327,-96.924
Laguna Hills,CA,City,31374,33.605,-117.703
Cleburne,TX,City,31352,32.347,-97.386
Tewksbury,MA,Town,31342,42.615,-71.233
La Verne,CA,City,31334,34.101,-117.77
Livingston,NJ,Township,31330,40.785,-74.33
North Royalton,OH,City,31322,41.314,-81.725
Jackson,MI,City,31309,42.246,-84.406
New Bern,NC,City,31291,35.108,-77.04
Southlake,TX,City,31265,32.942,-97.131
Hopkinsville,KY,City,31180,36.865,-87.489
Garner,NC,Town,31159,35.707,-78.605
Northport,AL,City,31125,33.229,-87.577
Ballwin,MO,City,31103,38.593,-90.553
Nicholasville,KY,City,31093,37.88,-84.573
Voorhees,NJ,Township,31069,39.852,-74.939
Saratoga,CA,City,31051,37.259,-122.032
Westfield,NJ,Town,31032,40.652,-74.348
West Warwick,RI,Town,31012,41.679,-71.516
Opelika,AL,City,30995,32.647,-85.378
White Lake,MI,Charter Township,30950,42.657,-83.505
North Andover,MA,Town,30915,42.659,-71.075
Niles,IL,Village,30912,42.012,-87.801
Alamogordo,NM,City,30898,32.9,-105.959
LaGrange,GA,City,30858,33.039,-85.032
Weatherford,TX,City,30854,32.759,-97.797
North Attleborough,MA,Town,30834,41.963,-71.349
Bowling Green,OH,City,30808,41.375,-83.65
North Chicago,IL,City,30759,42.329,-87.84
San Carlos,CA,City,30722,37.507,-122.26
Gurnee,IL,Village,30706,42.371,-87.896
Princeton,NJ,Municipality,30681,40.35,-74.659
Santa Paula,CA,City,30657,34.354,-119.06
Lawrenceville,GA,City,30629,33.956,-83.988
Zionsville,IN,Town,30603,39.959,-86.271
Newark,DE,City,30601,39.683,-75.754
Newington,CT,Town,30536,41.69,-72.731
North Tonawanda,NY,City,30496,43.032,-78.87
Miami Lakes,FL,Town,30467,25.913,-80.309
Morristown,TN,City,30431,36.214,-83.292
Lafayette,CO,City,30411,39.994,-105.09
Milford,MA,Town,30379,42.161,-71.525
Van Buren,MI,Charter Township,30375,42.234,-83.513
Morgantown,WV,City,30347,39.63,-79.956
Eagle,ID,City,30346,43.695,-116.354
Middletown,NY,City,30345,41.447,-74.42
Sanford,NC,City,30261,35.48,-79.181
Monterey,CA,City,30218,36.601,-121.894
Vernon,CT,Town,30215,41.838,-72.457
Highland Park,IL,City,30176,42.185,-87.801
Prosper,TX,Town,30174,33.236,-96.802
Liberty,MO,City,30167,39.246,-94.42
Chamblee,GA,City,30164,33.889,-84.304
Nutley,NJ,Township,30143,40.821,-74.159
New Smyrna Beach,FL,City,30142,29.024,-80.926
Bella Vista,AR,City,30104,36.476,-94.253
Salem,NH,Town,30089,42.782,-71.221
Laurel,MD,City,30060,39.103,-76.843
Galesburg,IL,City,30052,40.947,-90.371
East Windsor,NJ,Township,30045,40.267,-74.554
Erie,CO,Town,30038,40.05,-105.053
East Palo Alto,CA,City,30034,37.469,-122.141
Southgate,MI,City,30014,42.214,-83.194
Raytown,MO,City,30012,39.009,-94.463
Hazleton,PA,City,29963,40.954,-75.973
Melrose,MA,City,29817,42.455,-71.065
Fountain,CO,City,29802,38.683,-104.701
Winter Park,FL,City,29795,28.598,-81.351
Garfield Heights,OH,City,29781,41.417,-81.606
Atascadero,CA,City,29773,35.489,-120.668
Hobart,IN,City,29752,41.532,-87.255
Parkersburg,WV,City,29738,39.265,-81.563
Gloucester,MA,City,29729,42.613,-70.662
Burton,MI,City,29715,42.99,-83.634
Algonquin,IL,Village,29700,42.167,-88.292
Greenville,MS,City,29670,33.409,-91.06
Schererville,IN,Town,29646,41.479,-87.457
Morrisville,NC,Town,29630,35.834,-78.841
Fitchburg,WI,City,29609,43.016,-89.432
Fridley,MN,City,29590,45.079,-93.272
Northampton,MA,City,29571,42.319,-72.631
Johnston,RI,Town,29568,41.828,-71.519
Central,LA,City,29565,30.554,-91.037
Oak Park,MI,City,29560,42.46,-83.182
Rahway,NJ,City,29556,40.607,-74.276
Wellesley,MA,Town,29550,42.302,-71.29
Paragould,AR,City,29537,36.055,-90.486
Suisun City,CA,City,29518,38.238,-122.041
West Windsor,NJ,Township,29518,40.288,-74.63
Banning,CA,City,29505,33.925,-116.878
Windsor,CT,Town,29492,41.864,-72.656
Jacksonville,AR,City,29477,34.866,-92.111
Kirkwood,MO,City,29461,38.581,-90.406
Burbank,IL,City,29439,41.734,-87.78
Shaker Heights,OH,City,29439,41.465,-81.536
Matthews,NC,Town,29435,35.116,-80.722
Seguin,TX,City,29433,29.569,-97.965
Texarkana,AR,City,29387,33.427,-94.039
Englewood,NJ,City,29308,40.894,-73.976
Stoughton,MA,Town,29281,42.117,-71.102
Magna,UT,Metro Township,29251,40.704,-112.092
Danville,IL,City,29204,40.124,-87.63
Williston,ND,City,29160,48.163,-103.632
Lansing,IL,Village,29076,41.565,-87.539
McDonough,GA,City,29051,33.447,-84.147
Port Huron,MI,City,28983,42.977,-82.424
Lake in the Hills,IL,Village,28982,42.183,-88.335
Brownsburg,IN,Town,28973,39.843,-86.398
Stockbridge,GA,City,28973,33.543,-84.258
Russellville,AR,City,28940,35.278,-93.134
Mount Olive,NJ,Township,28886,40.875,-74.751
Newburgh,NY,City,28856,41.498,-74.011
Glen Ellyn,IL,Village,28846,41.876,-88.067
West Springfield,MA,City,28835,42.106,-72.622
Gaines,MI,Charter Township,28812,42.811,-85.605
Casselberry,FL,City,28794,28.662,-81.32
Slidell,LA,City,28781,30.278,-89.782
Cheshire,CT,Town,28733,41.511,-72.896
Jamestown,NY,City,28712,42.096,-79.241
Enterprise,AL,City,28711,31.314,-85.854
Lathrop,CA,City,28701,37.816,-121.313
Agawam,MA,City,28692,42.07,-72.615
Independence,KY,City,28676,38.942,-84.545
Lacey,NJ,Township,28655,39.851,-74.252
Monroeville,PA,Municipality,28640,40.434,-79.753
Allen Park,MI,City,28638,42.258,-83.21
Bridgewater,MA,Town,28633,41.973,-70.974
Milton,MA,Town,28630,42.242,-71.086
Saugus,MA,Town,28619,42.478,-71.022
Stafford,NJ,Township,28617,39.699,-74.259
Bixby,OK,City,28609,35.942,-95.883
Frankfort,KY,City,28602,38.199,-84.876
New Iberia,LA,City,28555,30.006,-91.819
Aberdeen,SD,City,28495,45.465,-98.488
Saratoga Springs,NY,City,28491,43.083,-73.785
Jeffersontown,KY,City,28474,38.194,-85.565
Madison Heights,MI,City,28468,42.486,-83.105
Hamtramck,MI,City,28433,42.394,-83.056
Walnut,CA,City,28430,34.02,-117.866
Statesville,NC,City,28419,35.785,-80.888
Glen Cove,NY,City,28365,40.863,-73.634
Belmont,CA,City,28335,37.52,-122.276
Bergenfield,NJ,Borough,28321,40.928,-73.996
Marion,IN,City,28310,40.559,-85.66
Oakdale,MN,City,28303,44.963,-92.964
Maryland Heights,MO,City,28284,38.712,-90.432
Branford,CT,Town,28273,41.29,-72.807
Kahului,HI,Census-Designated Place,28219,20.891,-156.467
Harrison,NY,Village,28218,40.969,-73.713
Kent,OH,City,28215,41.154,-81.358
Lake Jackson,TX,City,28177,29.04,-95.437
Wilmette,IL,Village,28170,42.072,-87.723
Greenville,TX,City,28164,33.14,-96.107
Garden City,KS,City,28151,37.966,-100.874
Eagle Pass,TX,City,28130,28.709,-100.499
Easton,PA,City,28127,40.691,-75.209
Mililani Town,HI,Census-Designated Place,28121,21.451,-158.016
Winchester,VA,City,28120,39.186,-78.163
New Milford,CT,Town,28115,41.614,-73.419
Anderson,SC,City,28106,34.503,-82.65
Clinton,MS,City,28100,32.339,-90.329
Danvers,MA,Town,28087,42.576,-70.95
Twentynine Palms,CA,City,28065,34.136,-116.054
Neptune,NJ,Township,28061,40.216,-74.067
Maple Valley,WA,City,28013,47.358,-122.043
Washington,UT,City,27993,37.13,-113.51
Fredericksburg,VA,City,27982,38.304,-77.46
Henderson,KY,City,27981,37.837,-87.59
Ridgecrest,CA,City,27959,35.623,-117.67
Tualatin,OR,City,27942,45.384,-122.764
Plymouth,MI,Charter Township,27938,42.372,-83.517
East Haven,CT,Town,27923,41.312,-72.854
Bernards,NJ,Township,27830,40.681,-74.559
Chaska,MN,City,27810,44.787,-93.601
Dodge City,KS,City,27788,37.753,-100.017
Williamsport,PA,City,27754,41.242,-77.002
Madison,MS,City,27747,32.461,-90.112
Huntley,IL,Village,27740,42.168,-88.428
Mount Pleasant,WI,Village,27732,42.697,-87.856
North Kingstown,RI,Town,27732,41.547,-71.479
Bluffton,SC,Town,27716,32.208,-80.934
Delhi,MI,Charter Township,27710,42.626,-84.526
Balch Springs,TX,City,27685,32.729,-96.623
Rockledge,FL,City,27678,28.331,-80.723
Ocean,NJ,Township,27672,40.251,-74.046
Ramsey,MN,City,27646,45.237,-93.45
Lemon Grove,CA,City,27627,32.743,-117.031
Prior Lake,MN,City,27617,44.714,-93.424
Marshalltown,IA,City,27591,42.049,-92.913
Hutto,TX,City,27577,30.538,-97.55
Ossining,NY,Village,27551,41.163,-73.862
Granite City,IL,City,27549,38.701,-90.149
Millville,NJ,City,27491,39.395,-75.037
Chicago Heights,IL,City,27480,41.506,-87.641
Oak Forest,IL,City,27478,41.61,-87.756
Green,OH,City,27475,40.948,-81.471
Converse,TX,City,27466,29.511,-98.308
Daphne,AL,City,27462,30.604,-87.903
Garden City,MI,City,27380,42.326,-83.331
West Linn,OR,City,27373,45.367,-122.614
New London,CT,Town,27367,41.36,-72.106
Mason City,IA,City,27338,43.152,-93.201
Neenah,WI,City,27319,44.186,-88.462
Wethersfield,CT,Town,27298,41.702,-72.676
Belmont,MA,Town,27295,42.395,-71.181
Bridgeton,NJ,City,27263,39.427,-75.236
Round Lake Beach,IL,Village,27252,42.372,-88.09
Wooster,OH,City,27232,40.798,-81.94
New Lenox,IL,Village,27214,41.512,-87.966
Thomasville,NC,City,27183,35.883,-80.082
Newtown,CT,Town,27173,41.394,-73.305
Asheboro,NC,City,27156,35.708,-79.814
Lindenhurst,NY,Village,27148,40.687,-73.373
Bristol,TN,City,27147,36.592,-82.185
Plum,PA,Borough,27144,40.477,-79.744
Fremont,NE,City,27141,41.433,-96.496
Westport,CT,Town,27141,41.148,-73.348
Paducah,KY,City,27137,37.087,-88.597
McHenry,IL,City,27135,42.343,-88.274
Crestview,FL,City,27134,30.748,-86.58
Benicia,CA,City,27131,38.05,-122.159
Pearl,MS,City,27115,32.277,-90.132
Sachse,TX,City,27103,32.976,-96.596
Alvin,TX,City,27098,29.424,-95.244
Wakefield,MA,Town,27090,42.504,-71.065
Gladstone,MO,City,27063,39.205,-94.549
Wheeling,WV,City,27052,40.064,-80.723
Wasco,CA,City,27047,35.594,-119.338
Lemoore,CA,City,27038,36.302,-119.781
Leesburg,FL,City,27000,28.811,-81.875
South Pasadena,CA,City,26943,34.116,-118.151
Shoreview,MN,City,26921,45.079,-93.135
South Windsor,CT,Town,26918,41.834,-72.591
Pemberton,NJ,Township,26903,39.948,-74.587
Palm Springs,FL,Village,26890,26.639,-80.096
Auburn,NY,City,26866,42.932,-76.566
Vernon Hills,IL,Village,26850,42.223,-87.97
Union City,GA,City,26830,33.579,-84.545
Lebanon,PA,City,26814,40.34,-76.412
Edwardsville,IL,City,26808,38.812,-89.954
Florence,AZ,Town,26785,33.031,-111.387
South Salt Lake,UT,City,26777,40.713,-111.888
Superior,WI,City,26751,46.727,-92.098
Carrollton,GA,City,26738,33.58,-85.075
Horn Lake,MS,City,26736,34.963,-90.047
Farmington,CT,Town,26712,41.726,-72.842
Paramus,NJ,Borough,26698,40.96,-74.072
Temple Terrace,FL,City,26690,28.033,-82.393
Haines City,FL,City,26669,28.11,-81.616
Wilsonville,OR,City,26664,45.303,-122.766
Merrimack,NH,Town,26632,42.853,-71.526
Sanger,CA,City,26617,36.708,-119.556
Allendale,MI,Charter Township,26582,42.979,-85.96
Cabot,AR,City,26569,34.973,-92.016
Wall,NJ,Township,26525,40.17,-74.096
Elmira,NY,City,26523,42.09,-76.808
Eureka,CA,City,26512,40.804,-124.166
Randolph,NJ,Township,26504,40.844,-74.575
South Portland,ME,City,26498,43.636,-70.254
Mint Hill,NC,Town,26450,35.177,-80.652
Kernersville,NC,Town,26449,36.12,-80.073
Key West,FL,City,26444,24.555,-81.802
Owatonna,MN,City,26420,44.084,-93.226
Brawley,CA,City,26416,32.979,-115.535
Homewood,AL,City,26414,33.48,-86.792
Walpole,MA,Town,26383,42.153,-71.249
Burlington,MA,Town,26377,42.503,-71.202
East Chicago,IN,City,26370,41.629,-87.454
Windsor,CA,Town,26344,38.547,-122.817
Norco,CA,City,26316,33.931,-117.545
Clayton,NC,Town,26307,35.653,-78.46
Troy,OH,City,26305,40.04,-84.203
Forest Grove,OR,City,26225,45.52,-123.112
Grandview,MO,City,26209,38.889,-94.533
Lodi,NJ,Borough,26206,40.883,-74.083
Austin,MN,City,26174,43.667,-92.975
Big Spring,TX,City,26144,32.252,-101.477
Imperial Beach,CA,City,26137,32.584,-117.114
Trussville,AL,City,26123,33.62,-86.608
Batavia,IL,City,26098,41.85,-88.312
Lockport,IL,City,26094,41.589,-88.057
Medina,OH,City,26094,41.139,-81.863
Inkster,MI,City,26088,42.294,-83.31
Camas,WA,City,26065,45.587,-122.402
Colleyville,TX,City,26057,32.881,-97.156
Bessemer,AL,City,26019,33.402,-86.953
Hercules,CA,City,26016,38.017,-122.288
Rockville Centre,NY,Village,26016,40.657,-73.649
Woodburn,OR,City,26013,45.144,-122.856
Ridgewood,NJ,Village,25979,40.98,-74.118
El Cerrito,CA,City,25962,37.916,-122.31
Jenks,OK,City,25949,36.023,-95.97
Winona,MN,City,25948,44.048,-91.64
Chanhassen,MN,City,25947,44.862,-93.538
West Melbourne,FL,City,25924,28.054,-80.661
Mansfield,CT,Town,25892,41.786,-72.223
Elk River,MN,City,25835,45.303,-93.567
Londonderry,NH,Town,25826,42.881,-71.388
Marshfield,MA,Town,25825,42.124,-70.727
Staunton,VA,City,25750,38.149,-79.073
Mercer Island,WA,City,25748,47.575,-122.222
Pooler,GA,City,25711,32.116,-81.249
Ewa Gentry,HI,Census-Designated Place,25707,21.334,-158.026
Cliffside Park,NJ,Borough,25693,40.813,-73.992
Maplewood,NJ,Township,25684,40.729,-74.272
Dickinson,ND,City,25679,46.879,-102.79
Alton,IL,City,25676,38.89,-90.184
Stevens Point,WI,City,25666,44.523,-89.575
Rosemount,MN,City,25650,44.739,-93.126
Blackman,MI,Charter Township,25642,42.302,-84.427
Woodstock,IL,City,25630,42.315,-88.447
Derby,KS,City,25625,37.545,-97.27
West Chicago,IL,City,25614,41.884,-88.204
Marysville,OH,City,25571,40.236,-83.367
Ottumwa,IA,City,25529,41.017,-92.412
Reading,MA,Town,25518,42.537,-71.107
Mahwah,NJ,Township,25487,41.086,-74.198
Venice,FL,City,25463,27.1,-82.45
Hazelwood,MO,City,25458,38.765,-90.37
Xenia,OH,City,25441,39.685,-83.929
Moscow,ID,City,25435,46.734,-117.001
Peekskill,NY,City,25431,41.292,-73.92
Oxford,MS,City,25416,34.367,-89.519
Barstow,CA,City,25415,34.899,-117.027
De Pere,WI,City,25410,44.447,-88.06
Athens,AL,City,25406,34.803,-86.97
Kingsville,TX,City,25402,27.516,-97.868
Hudson,NH,Town,25394,42.768,-71.405
Lafayette,CA,City,25391,37.892,-122.119
Galt,CA,City,25383,38.255,-121.3
Dedham,MA,Town,25364,42.249,-71.181
Caledonia,WI,Village,25361,42.785,-87.809
Tumwater,WA,City,25350,47.0,-122.909
Salem,VA,City,25346,37.293,-80.059
Rockaway,NJ,Township,25341,40.974,-74.474
Belvidere,IL,City,25339,42.259,-88.84
Carteret,NJ,Borough,25326,40.579,-74.227
Franklin,IN,City,25313,39.481,-86.055
Morton Grove,IL,Village,25297,42.036,-87.778
University Park,TX,City,25278,32.844,-96.787
Seal Beach,CA,City,25242,33.741,-118.105
Reedley,CA,City,25227,36.596,-119.451
Avon Lake,OH,City,25206,41.51,-82.019
Barberton,OH,City,25191,41.012,-81.608
Romulus,MI,City,25178,42.22,-83.396
Newport,RI,City,25163,41.49,-71.314
Hastings,NE,City,25152,40.584,-98.388
Moses Lake,WA,City,25146,47.13,-119.278
Mequon,WI,City,25142,43.222,-87.964
Brandon,MS,City,25138,32.273,-89.987
Maywood,CA,City,25138,33.987,-118.186
Newberg,OR,City,25138,45.3,-122.975
Walker,MI,City,25132,43.001,-85.768
Tarpon Springs,FL,City,25117,28.146,-82.757
Corsicana,TX,City,25109,32.093,-96.465
Sandusky,OH,City,25095,41.455,-82.711
Sugar Hill,GA,City,25076,34.106,-84.034
Easton,MA,Town,25058,42.037,-71.113
Wyandotte,MI,City,25058,42.208,-83.148
Sebastian,FL,City,25054,27.812,-80.468
Perrysburg,OH,City,25041,41.558,-83.629
Ridgefield,CT,Town,25033,41.308,-73.507
Muskego,WI,City,25032,42.906,-88.139
Norton Shores,MI,City,25030,43.162,-86.264
Yarmouth,MA,Town,25023,41.682,-70.222
Scotch Plains,NJ,Township,24968,40.621,-74.367
Norfolk,NE,City,24955,42.033,-97.407
Decatur,GA,City,24928,33.775,-84.297
Soledad,CA,City,24925,36.43,-121.326
Greenbelt,MD,City,24921,39.001,-76.876
White Bear Lake,MN,City,24883,45.084,-93.01
Fort Dodge,IA,City,24871,42.506,-94.183
Riverbank,CA,City,24865,37.736,-120.936
West Milford,NJ,Township,24862,41.096,-74.398
San Benito,TX,City,24861,26.133,-97.631
Conway,SC,City,24849,33.835,-79.047
Avon,OH,City,24847,41.46,-82.021
Bainbridge Island,WA,City,24825,47.625,-122.521
Melrose Park,IL,Village,24796,41.891,-87.857
Loma Linda,CA,City,24791,34.048,-117.261
Zanesville,OH,City,24765,39.94,-82.008
Ardmore,OK,City,24725,34.173,-97.128
Mauldin,SC,City,24724,34.779,-82.31
Watertown,NY,City,24685,43.975,-75.91
Selma,CA,City,24674,36.569,-119.612
Herndon,VA,Town,24655,38.97,-77.386
Zion,IL,City,24655,42.446,-87.825
Westford,MA,Town,24643,42.589,-71.443
Oak Harbor,WA,City,24622,48.292,-122.643
Dinuba,CA,City,24563,36.546,-119.384
Kalispell,MT,City,24558,48.199,-114.314
Homer Glen,IL,Village,24543,41.6,-87.936
Farmington,UT,City,24531,40.98,-111.888
Elmwood Park,IL,Village,24521,41.926,-87.816
Fort Mill,SC,Town,24521,35.009,-80.936
Benbrook,TX,City,24520,32.674,-97.469
West Memphis,AR,City,24520,35.147,-90.185
Simsbury,CT,Town,24517,41.871,-72.828
Medford,NJ,Township,24497,39.899,-74.826
Denison,TX,City,24479,33.755,-96.537
Paris,TX,City,24476,33.661,-95.556
Riverside,OH,City,24474,39.759,-84.11
Clinton,IA,City,24469,41.841,-90.188
Faribault,MN,City,24453,44.291,-93.268
Palmetto Bay,FL,Village,24439,25.622,-80.325
Westmont,IL,Village,24429,41.796,-87.975
Windham,CT,Town,24425,41.707,-72.161
Ponca City,OK,City,24424,36.704,-97.084
North Augusta,SC,City,24379,33.502,-81.965
Canton,MA,Town,24370,42.176,-71.126
Collinsville,IL,City,24366,38.67,-89.986
Auburn Hills,MI,City,24360,42.678,-83.251
Starkville,MS,City,24360,33.464,-88.817
Ridgeland,MS,City,24340,32.436,-90.128
South Plainfield,NJ,Borough,24338,40.579,-74.411
Pelham,AL,City,24318,33.295,-86.812
Harrison,MI,Charter Township,24314,42.594,-82.832
Barnegat,NJ,Township,24296,39.798,-74.366
Hingham,MA,Town,24284,42.213,-70.881
Kerrville,TX,City,24278,30.048,-99.141
Solon,OH,City,24262,41.39,-81.442
North Haven,CT,Town,24253,41.383,-72.856
Middleborough,MA,Town,24245,41.886,-70.864
Centerville,OH,City,24240,39.628,-84.159
Lisle,IL,Village,24223,41.8,-88.075
Mandan,ND,City,24206,46.826,-100.89
Rolling Meadows,IL,City,24200,42.067,-88.019
Papillion,NE,City,24159,41.156,-96.043
Fairfax,VA,City,24146,38.846,-77.305
Emporia,KS,City,24139,38.405,-96.181
Columbus,MS,City,24084,33.495,-88.427
Plainsboro,NJ,Township,24084,40.337,-74.587
Kingston,NY,City,24069,41.927,-73.998
Johnston,IA,City,24064,41.667,-93.7
Auburn,ME,City,24061,44.098,-70.231
Kankakee,IL,City,24052,41.121,-87.866
Columbus,NE,City,24028,41.43,-97.36
Acton,MA,Town,24021,42.476,-71.443
Kuna,ID,City,24011,43.485,-116.4
Webster Groves,MO,City,24010,38.593,-90.357
Wadsworth,OH,City,24007,41.025,-81.73
Highland,IN,Town,23984,41.554,-87.452
Burlington,NJ,Township,23983,40.05,-74.834
Burlington,IA,City,23982,40.807,-91.102
Freeport,IL,City,23973,42.298,-89.619
Willoughby,OH,City,23959,41.641,-81.407
Belton,MO,City,23953,38.812,-94.532
San Fernando,CA,City,23946,34.281,-118.44
Waukee,IA,City,23940,41.602,-93.869
Champlin,MN,City,23919,45.174,-93.394
Kenmore,WA,City,23914,47.757,-122.244
Munster,IN,Town,23894,41.562,-87.514
Saginaw,TX,City,23890,32.86,-97.364
South Elgin,IL,Village,23865,41.994,-88.292
Mansfield,MA,Town,23860,42.025,-71.194
Athens,OH,City,23849,39.329,-82.101
Cranford,NJ,Township,23847,40.658,-74.299
Jacksonville Beach,FL,City,23830,30.288,-81.392
Fountain Hills,AZ,Town,23820,33.611,-111.729
Muscatine,IA,City,23797,41.424,-91.043
Patterson,CA,City,23781,37.473,-121.144
Oshtemo,MI,Charter Township,23747,42.288,-85.712
Happy Valley,OR,City,23733,45.439,-122.513
Maple Heights,OH,City,23701,41.416,-81.566
Montgomery,NJ,Township,23690,40.428,-74.678
Roseburg,OR,City,23683,43.21,-123.342
Watauga,TX,City,23650,32.861,-97.254
Farmington,MN,City,23632,44.642,-93.143
Yukon,OK,City,23630,35.508,-97.751
Lexington,SC,Town,23568,33.982,-81.238
Shelbyville,TN,City,23557,35.483,-86.46
Rock Springs,WY,City,23526,41.586,-109.22
Maywood,IL,Village,23512,41.877,-87.854
Farragut,TN,Town,23506,35.881,-84.16
Greenfield,IN,City,23488,39.785,-85.769
Griffin,GA,City,23478,33.247,-84.264
Forney,TX,City,23455,32.748,-96.472
New Brighton,MN,City,23454,45.065,-93.199
Raritan,NJ,Township,23447,40.513,-74.899
Pottstown,PA,Borough,23433,40.246,-75.65
Loves Park,IL,City,23397,42.316,-89.058
Marshall,TX,City,23392,32.545,-94.367
North Platte,NE,City,23390,41.134,-100.764
Clinton,UT,City,23386,41.14,-112.055
Brookings,SD,City,23377,44.31,-96.799
Westerly,RI,Town,23359,41.358,-71.784
Simpsonville,SC,City,23354,34.738,-82.255
Wilmington,MA,Town,23349,42.551,-71.166
Christiansburg,VA,Town,23348,37.141,-80.402
Crystal,MN,City,23330,45.033,-93.36
Bedford,NH,Town,23322,42.94,-71.531
Wareham,MA,Town,23303,41.772,-70.683
Gardner,KS,City,23287,38.811,-94.927
Garden City,NY,Village,23272,40.724,-73.638
Lyon,MI,Charter Township,23271,42.478,-83.596
Nixa,MO,City,23257,37.044,-93.295
Stoneham,MA,Town,23244,42.469,-71.095
Calabasas,CA,City,23241,34.156,-118.643
Van Buren,AR,City,23218,35.437,-94.353
Millbrae,CA,City,23216,37.598,-122.387
Middletown,DE,Town,23192,39.445,-75.717
Eustis,FL,City,23189,28.853,-81.685
Cartersville,GA,City,23187,34.165,-84.795
Oakdale,CA,City,23181,37.766,-120.85
Glassboro,NJ,Borough,23149,39.7,-75.111
Hudson,OH,City,23110,41.24,-81.44
Edgewater,FL,City,23097,28.991,-80.908
Pickerington,OH,City,23094,39.884,-82.754
Trotwood,OH,City,23070,39.797,-84.311
Hialeah Gardens,FL,City,23068,25.878,-80.347
Belton,TX,City,23054,31.056,-97.464
Keene,NH,City,23047,42.934,-72.279
Radcliff,KY,City,23042,37.84,-85.938
Oxford,OH,City,23035,39.51,-84.742
Hopewell,VA,City,23033,37.302,-77.287
Laguna Beach,CA,City,23032,33.542,-117.783
Morris,NJ,Township,22974,40.806,-74.519
Winchester,MA,Town,22970,42.452,-71.139
Prairie Village,KS,City,22957,38.99,-94.63
Machesney Park,IL,Village,22950,42.347,-89.047
Roxbury,NJ,Township,22950,40.867,-74.663
Raymore,MO,City,22941,38.805,-94.457
Searcy,AR,City,22937,35.249,-91.736
Junction City,KS,City,22932,39.028,-96.83
Watertown,WI,City,22926,43.195,-88.727
Easley,SC,City,22921,34.83,-82.604
Leland,NC,Town,22908,34.189,-78.01
Roselle,IL,Village,22897,41.983,-88.078
Fernley,NV,City,22895,39.565,-119.19
Cudahy,CA,City,22811,33.961,-118.186
North Plainfield,NJ,Borough,22808,40.621,-74.429
Summit,NJ,City,22719,40.718,-74.358
Roselle,NJ,Borough,22695,40.653,-74.262
Duncan,OK,City,22692,34.502,-97.958
Watertown,SD,City,22655,44.9,-97.115
Corinth,TX,City,22634,33.15,-97.062
Central Falls,RI,City,22583,41.89,-71.394
Blue Island,IL,City,22558,41.655,-87.679
Biddeford,ME,City,22552,43.493,-70.453
Golden Valley,MN,City,22552,44.985,-93.38
Greenwood,SC,City,22545,34.191,-82.161
Lincoln,RI,Town,22529,41.908,-71.45
Lyndhurst,NJ,Township,22519,40.808,-74.121
Bristol,RI,Town,22493,41.69,-71.264
Horizon City,TX,City,22489,31.68,-106.191
Bonney Lake,WA,City,22487,47.177,-122.187
East Peoria,IL,City,22484,40.666,-89.58
Fairhope,AL,City,22477,30.523,-87.903
La Porte,IN,City,22471,41.611,-86.722
Mountain Brook,AL,City,22461,33.502,-86.756
Hillside,NJ,Township,22456,40.696,-74.226
Montville,NJ,Township,22450,40.925,-74.36
Acworth,GA,City,22440,34.064,-84.667
Oxford,MI,Charter Township,22419,42.84,-83.277
Albertville,AL,City,22386,34.268,-86.209
Bloomingdale,IL,Village,22382,41.956,-88.081
Marina,CA,City,22359,36.681,-121.79
Vernon,NJ,Township,22358,41.193,-74.487
Sunny Isles Beach,FL,City,22342,25.939,-80.124
Corcoran,CA,City,22339,36.098,-119.56
Clarksville,IN,Town,22333,38.298,-85.761
Coralville,IA,City,22318,41.675,-91.581
Villa Park,IL,Village,22263,41.89,-87.989
DeBary,FL,City,22260,28.883,-81.309
West Deptford,NJ,Township,22197,39.836,-75.197
Waynesboro,VA,City,22196,38.068,-78.887
Secaucus,NJ,Town,22181,40.782,-74.068
East Ridge,TN,City,22167,34.995,-85.235
Ruston,LA,City,22166,32.529,-92.638
Evans,CO,City,22165,40.378,-104.701
Hastings,MN,City,22154,44.735,-92.853
Scarborough,ME,Town,22135,43.592,-70.367
Smithfield,RI,Town,22118,41.901,-71.533
Watertown,CT,Town,22105,41.613,-73.116
Essex,VT,Town,22094,44.522,-73.062
Guilford,CT,Town,22073,41.307,-72.698
Oxford,AL,City,22069,33.614,-85.835
Chillicothe,OH,City,22059,39.333,-82.982
Lower,NJ,Township,22057,38.988,-74.919
Darien,IL,City,22011,41.75,-87.974
Pascagoula,MS,City,22010,30.365,-88.556
New Hope,MN,City,21986,45.033,-93.39
Sanford,ME,City,21982,43.439,-70.775
Columbia Heights,MN,City,21973,45.041,-93.247
Portsmouth,NH,City,21956,43.077,-70.757
Port Hueneme,CA,City,21954,34.148,-119.195
Sapulpa,OK,City,21929,35.999,-96.114
New Castle,PA,City,21926,41.0,-80.347
Shelby,NC,City,21918,35.292,-81.54
North Salt Lake,UT,City,21907,40.845,-111.92
Chambersburg,PA,Borough,21903,39.937,-77.661
Gallup,NM,City,21899,35.528,-108.744
Katy,TX,City,21894,29.791,-95.827
South Euclid,OH,City,21883,41.52,-81.519
Carbondale,IL,City,21857,37.727,-89.217
American Canyon,CA,City,21837,38.175,-122.26
Middleton,WI,City,21827,43.097,-89.508
Del City,OK,City,21822,35.446,-97.441
Birmingham,MI,City,21813,42.547,-83.214
Klamath Falls,OR,City,21813,42.225,-121.783
Sulphur,LA,City,21809,30.237,-93.377
Tukwila,WA,City,21798,47.474,-122.276
Brunswick,ME,Town,21756,43.909,-70.025
Rocky River,OH,City,21755,41.48,-81.839
Yucca Valley,CA,Town,21738,34.121,-116.437
Duarte,CA,City,21727,34.14,-117.978
Sedalia,MO,City,21725,38.707,-93.228
Millburn,NJ,Township,21710,40.738,-74.318
Mount Pleasant,MI,City,21688,43.59,-84.767
Park Forest,IL,Village,21687,41.484,-87.678
Alliance,OH,City,21672,40.922,-81.106
Lindenwold,NJ,Borough,21641,39.817,-74.989
Ashland,KY,City,21625,38.48,-82.641
Vicksburg,MS,City,21573,32.349,-90.881
Seymour,IN,City,21569,38.959,-85.889
Westborough,MA,Town,21567,42.265,-71.62
Anniston,AL,City,21564,33.657,-85.83
Mukilteo,WA,City,21538,47.946,-122.304
Bloomfield,CT,Town,21535,41.841,-72.741
Yorkville,IL,City,21533,41.642,-88.447
Baldwin,PA,Borough,21510,40.342,-79.981
Darien,CT,Town,21499,41.085,-73.485
Avon,IN,Town,21474,39.765,-86.383
South Holland,IL,Village,21465,41.601,-87.607
Dolton,IL,Village,21426,41.637,-87.608
Kihei,HI,Census-Designated Place,21423,20.755,-156.457
Elmwood Park,NJ,Borough,21422,40.905,-74.12
Kapolei,HI,Census-Designated Place,21411,21.34,-158.066
Lino Lakes,MN,City,21399,45.155,-93.132
Geneva,IL,City,21393,41.888,-88.305
East Moline,IL,City,21374,41.5,-90.444
Ashland,OR,City,21360,42.197,-122.714
Moorestown,NJ,Township,21355,39.97,-74.955
South Lake Tahoe,CA,City,21330,38.934,-119.978
Carrboro,NC,Town,21295,35.91,-79.072
Gardner,MA,City,21287,42.576,-71.995
Mountlake Terrace,WA,City,21286,47.788,-122.308
Ozark,MO,City,21284,37.021,-93.205
Pleasant Prairie,WI,Village,21250,42.567,-87.925
Grayslake,IL,Village,21248,42.344,-88.04
Louisville,CO,City,21226,39.977,-105.132
Hyattsville,MD,City,21187,38.96,-76.952
Clemmons,NC,Village,21163,36.021,-80.382
Milwaukie,OR,City,21119,45.446,-122.642
Hays,KS,City,21116,38.871,-99.331
Payson,UT,City,21101,40.044,-111.732
Mililani Mauka,HI,Census-Designated Place,21075,21.476,-157.995
Willmar,MN,City,21015,45.121,-95.044
Murphy,TX,City,21013,33.018,-96.613
Murrysville,PA,Municipality,21006,40.428,-79.698
Ludlow,MA,Town,21002,42.191,-72.455
Mill Creek,WA,City,20926,47.858,-122.22
Fort Walton Beach,FL,City,20922,30.405,-86.606
Lomita,CA,City,20921,33.792,-118.315
Germantown,WI,Village,20917,43.228,-88.109
North Ogden,UT,City,20916,41.306,-111.969
Helena,AL,City,20914,33.282,-86.853
Stephenville,TX,City,20897,32.221,-98.202
Lockport,NY,City,20876,43.17,-78.69
Parma Heights,OH,City,20863,41.392,-81.76
Arnold,MO,City,20858,38.435,-90.375
Dickinson,TX,City,20847,29.461,-95.052
Rocky Hill,CT,Town,20845,41.659,-72.65
Lebanon,OH,City,20841,39.433,-84.208
Bethany,OK,City,20831,35.512,-97.632
Mineola,NY,Village,20800,40.747,-73.639
South Milwaukee,WI,City,20795,42.911,-87.861
Northfield,MN,City,20790,44.456,-93.16
Suwanee,GA,City,20786,34.039,-84.053
Little Egg Harbor,NJ,Township,20784,39.646,-74.357
Covington,WA,City,20777,47.362,-122.102
South St Paul,MN,City,20759,44.893,-93.037
Battle Ground,WA,City,20743,45.781,-122.537
Bryant,AR,City,20663,34.595,-92.489
Pittsburg,KS,City,20646,37.411,-94.705
Adrian,MI,City,20645,41.899,-84.036
Marquette,MI,City,20629,46.542,-87.393
Pleasantville,NJ,City,20629,39.398,-74.517
Perry,GA,City,20624,32.472,-83.726
New Canaan,CT,Town,20622,41.156,-73.499
West St Paul,MN,City,20615,44.916,-93.102
Forest Lake,MN,City,20611,45.279,-92.986
Sidney,OH,City,20589,40.286,-84.155
Genesee,MI,Charter Township,20581,43.1,-83.618
Libertyville,IL,Village,20579,42.283,-87.953
La Canada Flintridge,CA,City,20573,34.204,-118.2
Snellville,GA,City,20573,33.858,-84.02
Elko,NV,City,20564,40.833,-115.763
Jefferson,NJ,Township,20538,40.992,-74.565
Waxhaw,NC,Town,20534,34.938,-80.738
North Liberty,IA,City,20479,41.744,-91.615
Mesquite,NV,City,20471,36.804,-114.065
Monroe,MI,City,20462,41.916,-83.398
Crest Hill,IL,City,20459,41.552,-88.102
Bourne,MA,Town,20452,41.737,-70.575
Sherwood,OR,City,20450,45.356,-122.841
Marblehead,MA,Town,20441,42.503,-70.862
Lynbrook,NY,Village,20438,40.658,-73.674
Westbrook,ME,City,20400,43.677,-70.367
Golden,CO,City,20399,39.755,-105.221
Portland,TX,City,20383,27.878,-97.325
Saco,ME,City,20381,43.499,-70.445
Middle,NJ,Township,20380,39.083,-74.834
Bethel,CT,Town,20358,41.371,-73.392
Piqua,OH,City,20354,40.148,-84.24
Mayfield Heights,OH,City,20351,41.52,-81.459
Tullahoma,TN,City,20339,35.362,-86.21
Foley,AL,City,20335,30.397,-87.668
Hanahan,SC,City,20325,32.912,-80.0
Harvey,IL,City,20324,41.608,-87.644
Painesville,OH,City,20312,41.725,-81.247
St John,IN,Town,20303,41.444,-87.468
Agoura Hills,CA,City,20299,34.154,-118.757
Frankfort,IL,Village,20296,41.499,-87.849
Palisades Park,NJ,Borough,20292,40.847,-73.997
South Burlington,VT,City,20292,44.433,-73.211
Montrose,CO,City,20291,38.479,-107.878
Albany,CA,City,20271,37.89,-122.299
Imperial,CA,City,20263,32.838,-115.572
Montgomery,IL,Village,20262,41.73,-88.346
Sandwich,MA,Town,20259,41.72,-70.478
Coronado,CA,City,20192,32.684,-117.181
Forest Park,OH,City,20189,39.289,-84.523
Plainview,TX,City,20187,34.185,-101.703
Morristown,NJ,Town,20180,40.797,-74.477
Berlin,CT,Town,20175,41.612,-72.783
Ennis,TX,City,20159,32.328,-96.626
Mamaroneck,NY,Village,20151,40.934,-73.727
Whitehall,OH,City,20127,39.968,-82.876
Westminster,MD,City,20126,39.58,-77.008
Hazlet,NJ,Township,20125,40.426,-74.178
Carlisle,PA,Borough,20118,40.201,-77.189
Hudson,MA,Town,20092,42.391,-71.559
Oakland,MI,Charter Township,20067,42.755,-83.157
Shelbyville,IN,City,20067,39.524,-85.777
Culpeper,VA,Town,20062,38.47,-78.003
Oroville,CA,City,20042,39.503,-121.566
Hurricane,UT,City,20036,37.15,-113.358
Maple Shade,NJ,Township,19980,39.954,-75.0
Otsego,MN,City,19966,45.264,-93.621
Port Angeles,WA,City,19960,48.119,-123.434
Shafter,CA,City,19953,35.478,-119.199
Howard,WI,Village,19950,44.562,-88.073
Oregon,OH,City,19950,41.637,-83.478
Lackawanna,NY,City,19949,42.818,-78.833
Evergreen Park,IL,Village,19943,41.721,-87.702
Rolla,MO,City,19943,37.948,-91.774
Broadview Heights,OH,City,19936,41.314,-81.685
Forest Park,GA,City,19932,33.622,-84.369
Miamisburg,OH,City,19923,39.642,-84.288
Holden,MA,Town,19905,42.355,-71.858
Kinston,NC,City,19900,35.262,-77.581
Mokena,IL,Village,19887,41.532,-87.886
Mustang,OK,City,19879,35.392,-97.725
Southbury,CT,Town,19879,41.469,-73.21
Makakilo,HI,Census-Designated Place,19877,21.359,-158.081
Sand Springs,OK,City,19874,36.138,-96.11
Arlington,WA,City,19868,48.199,-122.126
Plattsburgh,NY,City,19841,44.693,-73.456
Liberal,KS,City,19825,37.038,-100.922
Nogales,AZ,City,19770,31.337,-110.938
Lake Zurich,IL,Village,19759,42.197,-88.093
Hermosa Beach,CA,City,19728,33.862,-118.4
Universal City,TX,City,19720,29.554,-98.309
Monroe,WA,City,19699,47.856,-121.971
Cascade,MI,Charter Township,19667,42.899,-85.49
Grafton,MA,Town,19664,42.213,-71.69
Brigham City,UT,City,19650,41.51,-112.016
Hawthorne,NJ,Borough,19637,40.957,-74.159
Lexington,NC,City,19632,35.824,-80.253
Erlanger,KY,City,19611,39.016,-84.602
Sparta,NJ,Township,19600,41.039,-74.639
West Mifflin,PA,Borough,19589,40.365,-79.87
Hammond,LA,City,19584,30.504,-90.461
Claremore,OK,City,19580,36.313,-95.616
Waterford,CT,Town,19571,41.381,-72.157
South El Monte,CA,City,19567,34.052,-118.047
Altoona,IA,City,19565,41.647,-93.477
Maitland,FL,City,19543,28.624,-81.384
Madisonville,KY,City,19542,37.328,-87.499
Orinda,CA,City,19514,37.883,-122.175
Garfield,MI,Charter Township,19499,44.718,-85.663
Arvin,CA,City,19495,35.194,-118.831
Alamo,TX,City,19493,26.182,-98.118
Brookfield,IL,Village,19476,41.828,-87.852
Punta Gorda,FL,City,19471,26.863,-82.032
Homewood,IL,Village,19463,41.557,-87.665
Harrison,NJ,Town,19450,40.743,-74.153
Knightdale,NC,Town,19435,35.788,-78.481
Angleton,TX,City,19429,29.164,-95.432
Stillwater,MN,City,19394,45.056,-92.806
Lake Forest,IL,City,19367,42.252,-87.84
Seminole,FL,City,19364,27.843,-82.785
Sweetwater,FL,City,19363,25.765,-80.374
Hermiston,OR,City,19354,45.841,-119.29
Sartell,MN,City,19351,45.618,-94.213
Highland,UT,City,19348,40.429,-111.789
Warrensburg,MO,City,19337,38.763,-93.736
Aberdeen,NJ,Township,19329,40.404,-74.219
Orange,TX,City,19324,30.092,-93.734
Prichard,AL,City,19322,30.745,-88.079
Winthrop,MA,City,19316,42.382,-70.982
Zachary,LA,City,19316,30.648,-91.157
Bartow,FL,City,19309,27.886,-81.822
Maumelle,AR,City,19251,34.853,-92.405
Twinsburg,OH,City,19248,41.311,-81.44
Ashland,OH,City,19225,40.869,-82.315
Santa Fe Springs,CA,City,19219,33.934,-118.063
Norton,MA,Town,19202,41.96,-71.189
Deerfield,IL,Village,19196,42.167,-87.846
Ferndale,MI,City,19190,42.461,-83.135
Lakeway,TX,City,19189,30.355,-97.98
Tinton Falls,NJ,Borough,19181,40.267,-74.099
Highland,MI,Charter Township,19172,42.653,-83.622
Weirton,WV,City,19163,40.404,-80.589
Winchester,KY,City,19134,37.994,-84.177
Naples,FL,City,19115,26.147,-81.796
Boone,NC,Town,19092,36.213,-81.669
Hopkins,MN,City,19079,44.924,-93.411
Cumberland,MD,City,19076,39.652,-78.761
Matteson,IL,Village,19073,41.499,-87.703
Durango,CO,City,19071,37.271,-107.881
Alsip,IL,Village,19063,41.669,-87.739
Scituate,MA,Town,19063,42.2,-70.759
Springboro,OH,City,19062,39.557,-84.233
Norwood,OH,City,19043,39.155,-84.46
Cocoa,FL,City,19041,28.378,-80.765
Chowchilla,CA,City,19039,37.113,-120.23
Lumberton,NC,City,19025,34.619,-79.009
Gautier,MS,City,19024,30.387,-88.616
Pinole,CA,City,19022,38.002,-122.318
Sylvania,OH,City,19011,41.716,-83.703
Tavares,FL,City,19003,28.797,-81.74
Central Point,OR,City,18997,42.374,-122.918
Dixon,CA,City,18988,38.448,-121.824
Fox Crossing,WI,Village,18974,44.236,-88.475
Harrisburg,NC,Town,18967,35.321,-80.658
Fayetteville,GA,City,18957,33.449,-84.455
Point Pleasant,NJ,Borough,18941,40.083,-74.068
Greenfield,CA,City,18937,36.323,-121.245
Sudbury,MA,Town,18934,42.38,-71.422
Avon,CT,Town,18932,41.79,-72.832
Marshfield,WI,City,18929,44.668,-90.173
Ansonia,CT,Town,18918,41.343,-73.065
Augusta,ME,City,18899,44.31,-69.779
Thomasville,GA,City,18881,30.837,-83.98
Wisconsin Rapids,WI,City,18877,44.389,-89.823
Brownwood,TX,City,18862,31.719,-98.986
Arcata,CA,City,18857,40.862,-124.075
Nederland,TX,City,18856,29.974,-93.99
Ottawa,IL,City,18840,41.346,-88.841
Creve Coeur,MO,City,18834,38.671,-90.443
Rutherford,NJ,Borough,18834,40.82,-74.106
Ashland,MA,Town,18832,42.255,-71.464
Monroe,CT,Town,18825,41.331,-73.231
Bensenville,IL,Village,18813,41.957,-87.941
Onalaska,WI,City,18803,43.884,-91.22
North Myrtle Beach,SC,City,18790,33.821,-78.673
Bellwood,IL,Village,18789,41.882,-87.883
Springfield,TN,City,18782,36.509,-86.885
Martinsburg,WV,City,18777,39.457,-77.97
Lansdale,PA,Borough,18773,40.242,-75.284
Hopkinton,MA,Town,18758,42.228,-71.551
Republic,MO,City,18750,37.106,-93.478
Sheridan,WY,City,18737,44.797,-106.956
Altus,OK,City,18729,34.638,-99.334
Round Lake,IL,Village,18721,42.353,-88.093
Lynn Haven,FL,City,18695,30.244,-85.649
East Lyme,CT,Town,18693,41.363,-72.232
West Chester,PA,Borough,18671,39.96,-75.604
Ellensburg,WA,City,18666,46.991,-120.548
Wahiawa,HI,Census-Designated Place,18658,21.498,-158.026
Elizabeth City,NC,City,18631,36.3,-76.224
Foxborough,MA,Town,18618,42.067,-71.251
Newton,KS,City,18602,38.05,-97.345
Phoenixville,PA,Borough,18602,40.134,-75.516
Clive,IA,City,18601,41.609,-93.774
Brook Park,OH,City,18595,41.404,-81.804
Durant,OK,City,18589,33.991,-96.376
Goffstown,NH,Town,18577,43.019,-71.567
Sycamore,IL,City,18577,41.988,-88.684
Sharon,MA,Town,18575,42.111,-71.181
Berea,OH,City,18545,41.368,-81.853
Palestine,TX,City,18544,31.762,-95.631
Trenton,MI,City,18544,42.141,-83.178
Palos Hills,IL,City,18530,41.697,-87.817
Ferguson,MO,City,18527,38.744,-90.305
Groveland,FL,City,18505,28.597,-81.835
Wilton,CT,Town,18503,41.199,-73.435
Albert Lea,MN,City,18492,43.648,-93.369
Concord,MA,Town,18491,42.463,-71.366
South Orange Village,NJ,Township,18484,40.748,-74.261
East St Louis,IL,City,18469,38.616,-90.127
Franklin Park,IL,Village,18467,41.935,-87.865
Dover,NJ,Town,18460,40.886,-74.559
Lebanon,OR,City,18447,44.538,-122.907
Seagoville,TX,City,18446,32.653,-96.545
Niles,OH,City,18443,41.181,-80.765
Arroyo Grande,CA,City,18441,35.124,-120.585
Windham,ME,Town,18434,43.797,-70.399
Ocean Springs,MS,City,18429,30.414,-88.828
Fairmont,WV,City,18416,39.485,-80.143
Johnstown,PA,City,18411,40.326,-78.918
Tallmadge,OH,City,18394,41.101,-81.441
Pinecrest,FL,Village,18388,25.665,-80.305
Montville,CT,Town,18387,41.464,-72.164
Logansport,IN,City,18366,40.754,-86.363
Pembroke,MA,Town,18361,42.067,-70.806
Lenoir,NC,City,18352,35.914,-81.539
Winder,GA,City,18338,33.993,-83.72
Kingsland,GA,City,18337,30.846,-81.791
Gorham,ME,Town,18336,43.703,-70.462
Stonington,CT,Town,18335,41.379,-71.914
Manchester,MO,City,18333,38.593,-90.512
Blythe,CA,City,18317,33.61,-114.6
Somerset,MA,Town,18303,41.773,-71.138
Newburyport,MA,City,18289,42.811,-70.873
White Settlement,TX,City,18269,32.76,-97.459
Menasha,WI,City,18268,44.201,-88.449
North Aurora,IL,Village,18261,41.806,-88.327
St Marys,GA,City,18256,30.752,-81.576
Scarsdale,NY,Village,18253,40.992,-73.781
Portsmouth,OH,City,18252,38.734,-82.997
St Michael,MN,City,18235,45.21,-93.665
Amsterdam,NY,City,18219,42.942,-74.191
Farmington,MO,City,18217,37.781,-90.421
Cullman,AL,City,18213,34.178,-86.844
Cudahy,WI,City,18204,42.948,-87.86
Oconomowoc,WI,City,18203,43.1,-88.493
Alton,TX,City,18198,26.289,-98.311
Shorewood,IL,Village,18186,41.522,-88.199
Centralia,WA,City,18183,46.716,-122.954
Canby,OR,City,18171,45.262,-122.692
McAlester,OK,City,18171,34.933,-95.77
Colonial Heights,VA,City,18170,37.262,-77.397
Bourbonnais,IL,Village,18164,41.155,-87.878
Steubenville,OH,City,18161,40.36,-80.615
South Hadley,MA,Town,18150,42.242,-72.584
Cohoes,NY,City,18147,42.773,-73.708
Panama City Beach,FL,City,18094,30.233,-85.879
Mount Washington,KY,City,18090,38.049,-85.545
Crowley,TX,City,18070,32.579,-97.358
Bay City,TX,City,18061,28.983,-95.97
Natchitoches,LA,City,18039,31.761,-93.087
La Marque,TX,City,18030,29.369,-94.996
Grand Haven,MI,Charter Township,18004,42.985,-86.185
Ashtabula,OH,City,17975,41.891,-80.806
Selma,AL,City,17971,32.409,-87.021
Fate,TX,City,17958,32.94,-96.387
Tiffin,OH,City,17953,41.114,-83.178
Anoka,MN,City,17921,45.198,-93.389
Alice,TX,City,17891,27.75,-98.073
Sevierville,TN,City,17889,35.867,-83.566
Pataskala,OH,City,17886,40.01,-82.715
Delran,NJ,Township,17882,40.013,-74.946
Portsmouth,RI,Town,17871,41.567,-71.262
Dumont,NJ,Borough,17863,40.945,-73.992
Boerne,TX,City,17850,29.786,-98.734
North Canton,OH,City,17842,40.876,-81.402
Cary,IL,Village,17826,42.209,-88.238
Godfrey,IL,Village,17825,38.954,-90.191
Gretna,LA,City,17814,29.916,-90.057
Hope Mills,NC,Town,17808,34.968,-78.954
Rockland,MA,Town,17803,42.131,-70.914
Mebane,NC,City,17797,36.09,-79.274
Centerton,AR,City,17792,36.357,-94.296
Goodlettsville,TN,City,17789,36.322,-86.713
Webster,MA,Town,17776,42.054,-71.849
Greenfield,MA,City,17768,42.615,-72.597
El Dorado,AR,City,17756,33.212,-92.663
Killingly,CT,Town,17752,41.836,-71.847
Southbridge,MA,City,17740,42.06,-72.034
McKeesport,PA,City,17727,40.35,-79.866
Troy,AL,City,17727,31.809,-85.971
Wayne,MI,City,17713,42.281,-83.387
Mount Holly,NC,City,17703,35.311,-81.015
Wailuku,HI,Census-Designated Place,17697,20.885,-156.504
Ammon,ID,City,17694,43.482,-111.97
Madison,CT,Town,17691,41.369,-72.645
Texas,MI,Charter Township,17691,42.201,-85.707
Clemson,SC,City,17681,34.684,-82.812
New Philadelphia,OH,City,17677,40.49,-81.446
Eastlake,OH,City,17670,41.654,-81.45
Stafford,TX,City,17666,29.633,-95.565
Laguna Woods,CA,City,17644,33.608,-117.73
Anacortes,WA,City,17637,48.515,-122.611
Lemont,IL,Village,17629,41.673,-88.002
Takoma Park,MD,City,17629,38.98,-77.002
Jacksonville,IL,City,17616,39.734,-90.229
Coalinga,CA,City,17590,36.133,-120.339
Pinehurst,NC,Village,17581,35.188,-79.46
Cortland,NY,City,17556,42.601,-76.179
St Matthews,KY,City,17534,38.252,-85.646
Kirksville,MO,City,17530,40.195,-92.583
Brookfield,CT,Town,17528,41.46,-73.39
Plainville,CT,Town,17525,41.673,-72.86
Colchester,VT,Town,17524,44.554,-73.187
Hopewell,NJ,Township,17491,40.33,-74.833
South Ogden,UT,City,17488,41.192,-111.971
Morganton,NC,City,17474,35.745,-81.687
Terrell,TX,City,17465,32.736,-96.277
Fort Thomas,KY,City,17438,39.079,-84.449
Stuart,FL,City,17425,27.196,-80.243
West Columbia,SC,City,17416,33.99,-81.095
Holmdel,NJ,Township,17400,40.382,-74.176
New Castle,IN,City,17396,39.931,-85.37
Hinsdale,IL,Village,17395,41.802,-87.929
Gainesville,TX,City,17394,33.624,-97.145
Brenham,TX,City,17369,30.167,-96.398
Amesbury,MA,City,17366,42.851,-70.956
Clayton,MO,City,17355,38.643,-90.335
Groves,TX,City,17335,29.946,-93.917
Murray,KY,City,17307,36.611,-88.315
Conyers,GA,City,17305,33.657,-83.982
Johnstown,CO,Town,17303,40.336,-104.913
Fairview Park,OH,City,17291,41.442,-81.864
Siloam Springs,AR,City,17287,36.181,-94.541
Beckley,WV,City,17286,37.778,-81.188
Charleston,IL,City,17286,39.496,-88.176
Shelbyville,KY,City,17282,38.212,-85.222
El Segundo,CA,City,17272,33.917,-118.402
Streetsboro,OH,City,17260,41.24,-81.346
Los Lunas,NM,Village,17242,34.806,-106.733
Aurora,OH,City,17239,41.302,-81.333
Danville,KY,City,17234,37.646,-84.771
Bristol,VA,City,17219,36.617,-82.158
Manassas Park,VA,City,17219,38.769,-77.449
Norcross,GA,City,17209,33.94,-84.211
Bellaire,TX,City,17202,29.706,-95.46
Weehawken,NJ,Township,17197,40.765,-74.023
Zephyrhills,FL,City,17194,28.239,-82.18
Wixom,MI,City,17193,42.524,-83.534
Springfield,NJ,Township,17178,40.699,-74.327
Laurel,MS,City,17161,31.692,-89.131
Graham,NC,City,17157,36.068,-79.4
Barrington,RI,Town,17153,41.748,-71.315
Buford,GA,City,17144,34.12,-83.992
Swansea,MA,Town,17144,41.753,-71.217
Canon City,CO,City,17141,38.443,-105.236
Hernando,MS,City,17138,34.85,-89.992
Morton,IL,Village,17117,40.61,-89.462
Massapequa Park,NY,Village,17109,40.681,-73.45
Hannibal,MO,City,17108,39.71,-91.356
Denville,NJ,Township,17107,40.904,-74.475
Pendleton,OR,City,17107,45.673,-118.788
Easton,MD,Town,17101,38.773,-76.07
Milford,MI,Charter Township,17090,42.565,-83.616
Kaukauna,WI,City,17089,44.278,-88.272
Middletown,RI,Town,17075,41.516,-71.277
Safety Harbor,FL,City,17072,28.007,-82.698
Milledgeville,GA,City,17070,33.081,-83.227
Norwalk,OH,City,17068,41.242,-82.616
Defiance,OH,City,17066,41.286,-84.363
Cinnaminson,NJ,Township,17064,39.997,-74.989
Abington,MA,Town,17062,42.118,-70.956
Tifton,GA,City,17045,31.45,-83.509
Washougal,WA,City,17039,45.579,-122.354
Bridgeview,IL,Village,17027,41.748,-87.8
Princeton,TX,City,17027,33.184,-96.509
Huntington,IN,City,17022,40.882,-85.495
Bluffdale,UT,City,17014,40.48,-111.94
Aberdeen,WA,City,17013,46.975,-123.819
Rancho Mirage,CA,City,16999,33.76,-116.429
Ashwaubenon,WI,Village,16991,44.483,-88.07
El Reno,OK,City,16989,35.532,-97.955
Villa Rica,GA,City,16970,33.732,-84.919
Mount Vernon,OH,City,16956,40.394,-82.485
Calhoun,GA,City,16949,34.483,-84.945
Bellingham,MA,Town,16945,42.1,-71.472
Huron,MI,Charter Township,16944,42.137,-83.363
Madison,NJ,Borough,16937,40.758,-74.418
New Milford,NJ,Borough,16923,40.934,-74.019
Oswego,NY,City,16921,43.458,-76.504
Anna,TX,City,16896,33.347,-96.553
Westchester,IL,Village,16892,41.849,-87.882
Auburn,MA,Town,16889,42.194,-71.85
Powder Springs,GA,City,16887,33.86,-84.684
Centerville,UT,City,16884,40.91,-111.879
Laconia,NH,City,16871,43.528,-71.47
Mattoon,IL,City,16870,39.483,-88.378
Moraga,CA,Town,16870,37.846,-122.123
Pampa,TX,City,16867,35.536,-100.961
Fulshear,TX,City,16856,29.69,-95.882
Heber,UT,City,16856,40.506,-111.413
Marion,IL,City,16855,37.731,-88.927
Dallas,OR,City,16854,44.922,-123.317
Fenton,MI,Charter Township,16843,42.843,-83.741
Menomonie,WI,City,16843,44.876,-91.93
Lake Mary,FL,City,16798,28.759,-81.335
Donna,TX,City,16797,26.171,-98.054
Humble,TX,City,16795,29.988,-95.268
Long Beach,MS,City,16780,30.35,-89.153
Hueytown,AL,City,16776,33.447,-86.997
Country Club Hills,IL,City,16775,41.557,-87.714
Vincennes,IN,City,16759,38.677,-87.529
Seymour,CT,Town,16748,41.384,-73.074
La Vista,NE,City,16746,41.184,-96.032
Celina,TX,City,16739,33.317,-96.787
West Haven,UT,City,16739,41.208,-112.054
Truckee,CA,Town,16729,39.353,-120.193
New Port Richey,FL,City,16728,28.247,-82.718
Susanville,CA,City,16728,40.431,-120.63
Frankfort,IN,City,16715,40.281,-86.512
Beaver Dam,WI,City,16708,43.457,-88.837
Lake St Louis,MO,City,16707,38.782,-90.787
Fairview Heights,IL,City,16706,38.593,-89.985
Jasper,IN,City,16703,38.391,-86.932
Sunland Park,NM,City,16702,31.8,-106.579
Belle Glade,FL,City,16698,26.685,-80.668
Clearlake,CA,City,16685,38.96,-122.633
Lebanon,IN,City,16662,40.048,-86.469
Addison,TX,Town,16661,32.961,-96.83
Richmond Hill,GA,City,16633,31.934,-81.309
Havelock,NC,City,16621,34.876,-76.904
Ukiah,CA,City,16607,39.147,-123.21
Rye,NY,City,16592,40.945,-73.686
Wyckoff,NJ,Township,16585,41.003,-74.173
Millbrook,AL,City,16564,32.478,-86.362
Red Wing,MN,City,16547,44.565,-92.537
Douglas,AZ,City,16534,31.344,-109.545
Griffith,IN,Town,16528,41.523,-87.428
Dyer,IN,Town,16517,41.494,-87.522
Calera,AL,City,16494,33.121,-86.745
Grosse Pointe Woods,MI,City,16487,42.436,-82.898
Fairburn,GA,City,16483,33.551,-84.586
Ada,OK,City,16481,34.775,-96.679
Vienna,VA,Town,16473,38.899,-77.26
Ham Lake,MN,City,16464,45.256,-93.233
Opa locka,FL,City,16463,25.9,-80.255
North Arlington,NJ,Borough,16457,40.786,-74.126
Albemarle,NC,City,16432,35.35,-80.198
East Longmeadow,MA,Town,16430,42.06,-72.499
Hanover,PA,Borough,16429,39.8,-76.983
Ellington,CT,Town,16426,41.91,-72.473
Fillmore,CA,City,16419,34.399,-118.918
Ewa Beach,HI,Census-Designated Place,16415,21.313,-158.006
Center Point,AL,City,16406,33.638,-86.684
Artesia,CA,City,16395,33.868,-118.081
Firestone,CO,Town,16381,40.141,-104.961
Sunnyside,WA,City,16375,46.316,-120.006
Lake Wales,FL,City,16361,27.921,-81.599
Tiverton,RI,Town,16359,41.631,-71.175
Vero Beach,FL,City,16354,27.647,-80.392
Payson,AZ,Town,16351,34.231,-111.325
Mount Dora,FL,City,16341,28.813,-81.633
Westport,MA,Town,16339,41.591,-71.086
Northbridge,MA,Town,16335,42.131,-71.657
La Grange,IL,Village,16321,41.816,-87.87
Crawfordsville,IN,City,16306,40.042,-86.901
