City,Region,State,Country,Latitude,Longitude,Population,WaterPollution,AirQuality
New York,New York,NY,United States of America,40.714,-74.007,8804190.0,49.5049505,46.81603774
Washington,District of Columbia,DC,United States of America,38.895,-77.036,689545.0,49.10714286,66.12903226
San Francisco,California,CA,United States of America,37.78,-122.414,873965.0,43.0,60.51401869
Los Angeles,California,CA,United States of America,34.052,-118.243,3898747.0,61.29943503,36.62162162
Alexandria,Virginia,VA,United States of America,38.805,-77.047,159467.0,46.15384615,89.0625
Boston,Massachusetts,MA,United States of America,42.359,-71.057,675647.0,32.91139241,78.23529412
Saginaw,Michigan,MI,United States of America,43.445,-84.022,44202.0,70.0,85.0
Saginaw,Michigan,MI,United States of America,43.433,-83.939,41679.0,70.0,85.0
San Antonio,Texas,TX,United States of America,29.423,-98.49,1434625.0,50.67567568,63.41463415
Chicago,Illinois,IL,United States of America,41.882,-87.628,2746388.0,53.62068966,57.43243243
Pittsburgh,Pennsylvania,PA,United States of America,40.441,-80.003,302971.0,59.61538462,58.92857143
Philadelphia,Pennsylvania,PA,United States of America,39.952,-75.164,1603797.0,55.64516129,54.28571429
Seattle,Washington,WA,United States of America,47.607,-122.338,737015.0,36.94852941,79.37062937
Baltimore,Maryland,MD,United States of America,39.289,-76.615,585708.0,64.13043478,62.5
Huntington Beach,California,CA,United States of America,33.659,-118.0,198711.0,65.625,85.71428571
Portland,Oregon,OR,United States of America,45.519,-122.679,652503.0,36.34259259,74.12280702
Indianapolis,Indiana,IN,United States of America,39.769,-86.158,887642.0,50.65789474,67.44186047
Miami,Florida,FL,United States of America,25.774,-80.192,442241.0,47.36842105,70.2020202
Detroit,Michigan,MI,United States of America,42.332,-83.047,639111.0,52.08333333,51.2195122
San Diego,California,CA,United States of America,32.716,-117.165,1386932.0,52.36486486,74.38271605
San Jose,California,CA,United States of America,37.336,-121.891,1013240.0,41.25,62.20930233
Denver,Colorado,CO,United States of America,39.739,-104.987,715522.0,36.83035714,53.1779661
Houston,Texas,TX,United States of America,29.76,-95.363,2304580.0,57.09459459,45.86092715
Phoenix,Arizona,AZ,United States of America,33.448,-112.074,1608139.0,47.64705882,44.29347826
Dallas,Texas,TX,United States of America,32.781,-96.797,1304379.0,42.69230769,63.38028169
Fort Worth,Texas,TX,United States of America,32.754,-97.331,918915.0,51.13636364,47.72727273
Austin,Texas,TX,United States of America,30.268,-97.743,961855.0,43.5,68.57142857
El Paso,Texas,TX,United States of America,31.76,-106.488,678815.0,44.64285714,63.75
Memphis,Tennessee,TN,United States of America,35.146,-90.052,633104.0,48.68421053,66.30434783
Charlotte,North Carolina,NC,United States of America,35.227,-80.843,874579.0,31.57894737,76.875
Columbus,Ohio,OH,United States of America,39.962,-83.001,905748.0,62.5,87.5
Jacksonville,Florida,FL,United States of America,30.328,-81.657,949611.0,66.21621622,75.65789474
Long Beach,California,CA,United States of America,33.768,-118.192,466742.0,32.69230769,50.0
Laredo,Texas,TX,United States of America,27.506,-99.503,255205.0,100.0,0.0
Oakland,California,CA,United States of America,37.804,-122.271,440646.0,33.33333333,72.14285714
Sacramento,California,CA,United States of America,38.577,-121.496,524943.0,39.89361702,55.09259259
Honolulu,Hawaii,HI,United States of America,21.306,-157.86,350964.0,41.51785714,74.58333333
Providence,Rhode Island,RI,United States of America,41.824,-71.413,190934.0,59.61538462,76.47058824
Tucson,Arizona,AZ,United States of America,32.222,-110.973,542629.0,39.65517241,84.27419355
Aurora,Illinois,IL,United States of America,41.758,-88.315,180542.0,25.0,75.0
Nashville,Tennessee,TN,United States of America,36.164,-86.783,689447.0,42.94871795,70.0
Salt Lake City,Utah,UT,United States of America,40.769,-111.891,199723.0,41.66666667,23.13432836
Atlanta,Georgia,GA,United States of America,33.749,-84.39,498715.0,46.57534247,59.6875
Las Vegas,Nevada,NV,United States of America,36.171,-115.144,641903.0,49.69135802,51.72413793
Albany,New York,NY,United States of America,42.653,-73.758,99224.0,31.25,87.5
Harrisburg,Pennsylvania,PA,United States of America,40.263,-76.887,50099.0,37.5,82.5
Trenton,New Jersey,NJ,United States of America,40.22,-74.766,90871.0,100.0,85.0
Newark,New Jersey,NJ,United States of America,40.736,-74.172,311549.0,62.5,50.0
Jersey City,New Jersey,NJ,United States of America,40.732,-74.063,292449.0,60.0,58.33333333
Keller,Texas,TX,United States of America,32.935,-97.254,45776.0,25.0,66.66666667
Davenport,Iowa,IA,United States of America,41.522,-90.576,101724.0,53.57142857,86.36363636
Jackson,Mississippi,MS,United States of America,32.3,-90.186,153701.0,28.57142857,85.41666667
Augusta,Maine,ME,United States of America,44.31,-69.779,18899.0,100.0,50.0
Baton Rouge,Louisiana,LA,United States of America,30.443,-91.184,227470.0,40.625,64.58333333
Lansing,Michigan,MI,United States of America,42.734,-84.552,112644.0,41.66666667,92.85714286
Lansing,Michigan,MI,United States of America,42.738,-84.592,8143.0,41.66666667,92.85714286
Concord,New Hampshire,NH,United States of America,43.204,-71.536,43976.0,15.0,91.66666667
Lincoln,Nebraska,NE,United States of America,40.809,-96.7,291082.0,27.5,86.66666667
Annapolis,Maryland,MD,United States of America,38.978,-76.489,40812.0,47.22222222,86.53846154
Springfield,Illinois,IL,United States of America,39.801,-89.655,114394.0,62.5,90.625
Montgomery,Alabama,AL,United States of America,32.378,-86.301,200603.0,56.25,70.83333333
Boca Raton,Florida,FL,United States of America,26.351,-80.086,97422.0,34.61538462,94.23076923
Juneau,Alaska,AK,United States of America,58.3,-134.408,32255.0,25.0,100.0
Burlington,Vermont,VT,United States of America,44.476,-73.214,44743.0,30.0,100.0
Allen,Texas,TX,United States of America,33.103,-96.67,104627.0,12.5,75.0
Las Cruces,New Mexico,NM,United States of America,32.31,-106.779,111385.0,33.33333333,82.8125
Little Rock,Arkansas,AR,United States of America,34.747,-92.288,202591.0,22.05882353,89.28571429
Hartford,Connecticut,CT,United States of America,41.761,-72.689,121054.0,50.0,65.38461538
Dover,Delaware,DE,United States of America,39.156,-75.524,39403.0,50.0,100.0
Fargo,North Dakota,ND,United States of America,46.874,-96.788,125990.0,0.0,100.0
Grand Forks,North Dakota,ND,United States of America,47.924,-97.031,59166.0,37.5,87.5
New Orleans,Louisiana,LA,United States of America,29.957,-90.063,383997.0,72.85714286,65.13157895
Dayton,Ohio,OH,United States of America,39.758,-84.191,137644.0,33.33333333,82.8125
Albuquerque,New Mexico,NM,United States of America,35.084,-106.652,564559.0,39.70588235,83.33333333
Oklahoma City,Oklahoma,OK,United States of America,35.468,-97.516,681054.0,31.73076923,88.33333333
Boise,Idaho,ID,United States of America,43.615,-116.202,235684.0,32.5,68.93939394
Minneapolis,Minnesota,MN,United States of America,44.977,-93.272,429954.0,33.57142857,79.51388889
Tallahassee,Florida,FL,United States of America,30.438,-84.282,196169.0,41.66666667,92.1875
Bismarck,North Dakota,ND,United States of America,46.805,-100.788,73622.0,50.0,95.83333333
Cleveland,Ohio,OH,United States of America,41.5,-81.694,372624.0,54.54545455,66.66666667
Milwaukee,Wisconsin,WI,United States of America,43.042,-87.905,577222.0,43.29268293,79.06976744
Columbia,South Carolina,SC,United States of America,34.001,-81.034,136632.0,52.27272727,66.07142857
Santa Fe,New Mexico,NM,United States of America,35.687,-105.939,87505.0,38.63636364,89.28571429
Helena,Montana,MT,United States of America,46.59,-112.038,32091.0,50.0,100.0
Cheyenne,Wyoming,WY,United States of America,41.14,-104.82,65132.0,0.0,92.85714286
Anchorage,Alaska,AK,United States of America,61.218,-149.885,291247.0,18.75,90.0
Des Moines,Iowa,IA,United States of America,41.587,-93.626,214133.0,38.33333333,82.5
Springfield,Oregon,OR,United States of America,44.046,-123.022,61851.0,50.0,25.0
Norman,Oklahoma,OK,United States of America,35.221,-97.443,128026.0,25.0,100.0
Buffalo,New York,NY,United States of America,42.886,-78.878,278349.0,36.95652174,77.08333333
Carson City,Nevada,NV,United States of America,39.164,-119.767,58639.0,50.0,100.0
Topeka,Kansas,KS,United States of America,39.05,-95.677,126587.0,56.25,81.25
Raleigh,North Carolina,NC,United States of America,35.78,-78.639,467665.0,31.25,84.44444444
Kansas City,Missouri,MO,United States of America,39.104,-94.583,508090.0,44.51219512,76.74418605
Olympia,Washington,WA,United States of America,47.043,-122.9,55605.0,18.75,87.5
Cincinnati,Ohio,OH,United States of America,39.105,-84.514,309317.0,43.10344828,57.57575758
Omaha,Nebraska,NE,United States of America,41.26,-95.94,486051.0,32.35294118,78.57142857
Fresno,California,CA,United States of America,36.737,-119.789,542107.0,78.125,21.25
Richmond,Virginia,VA,United States of America,37.546,-77.453,226610.0,27.63157895,73.17073171
Louisville,Kentucky,KY,United States of America,38.257,-85.757,633045.0,38.79310345,56.06060606
Madison,Wisconsin,WI,United States of America,43.074,-89.383,269840.0,40.32258065,86.76470588
Salem,Oregon,OR,United States of America,44.939,-123.032,175535.0,17.85714286,87.5
Ketchikan,Alaska,AK,United States of America,55.341,-131.645,8192.0,50.0,100.0
Charleston,West Virginia,WV,United States of America,38.35,-81.633,48864.0,50.0,95.0
Tulsa,Oklahoma,OK,United States of America,36.153,-95.991,413066.0,38.63636364,75.0
Santa Monica,California,CA,United States of America,34.019,-118.491,93076.0,54.16666667,66.66666667
Palo Alto,California,CA,United States of America,37.445,-122.162,68572.0,50.0,56.25
Green Bay,Wisconsin,WI,United States of America,44.516,-88.008,107395.0,50.0,63.88888889
Charleston,South Carolina,SC,United States of America,32.776,-79.931,150227.0,57.69230769,75.0
Dover,New Hampshire,NH,United States of America,43.198,-70.874,32741.0,50.0,100.0
Nashua,New Hampshire,NH,United States of America,42.765,-71.468,91322.0,0.0,87.5
Manchester,New Hampshire,NH,United States of America,42.991,-71.463,115644.0,38.88888889,76.92307692
Oak Ridge,Tennessee,TN,United States of America,36.026,-84.24,31402.0,50.0,87.5
San Luis Obispo,California,CA,United States of America,35.282,-120.659,47063.0,45.83333333,92.5
Cambridge,Massachusetts,MA,United States of America,42.376,-71.117,118403.0,21.875,91.66666667
West Hartford,Connecticut,CT,United States of America,41.771,-72.751,64083.0,6.25,91.66666667
New Haven,Connecticut,CT,United States of America,41.313,-72.931,134023.0,37.5,81.81818182
New Bedford,Massachusetts,MA,United States of America,41.635,-70.926,101079.0,75.0,25.0
Stamford,Connecticut,CT,United States of America,41.124,-73.567,135470.0,54.16666667,50.0
Bridgeport,Connecticut,CT,United States of America,41.198,-73.194,148654.0,66.66666667,79.16666667
Waterbury,Connecticut,CT,United States of America,41.554,-73.043,114403.0,0.0,80.0
Worcester,Massachusetts,MA,United States of America,42.263,-71.802,206518.0,75.0,91.66666667
Pittsfield,Massachusetts,MA,United States of America,42.448,-73.253,43927.0,100.0,89.28571429
Fall River,Massachusetts,MA,United States of America,41.702,-71.155,94000.0,50.0,100.0
Newton,Massachusetts,MA,United States of America,42.337,-71.208,88923.0,50.0,75.0
Danbury,Connecticut,CT,United States of America,41.408,-73.468,86518.0,0.0,75.0
Somerville,Massachusetts,MA,United States of America,42.388,-71.103,81045.0,12.5,100.0
Portland,Maine,ME,United States of America,43.659,-70.257,68408.0,42.85714286,82.14285714
Rochester,New York,NY,United States of America,43.156,-77.613,211328.0,47.91666667,64.70588235
Irvine,California,CA,United States of America,33.684,-117.796,307670.0,33.33333333,63.15789474
Fremont,California,CA,United States of America,37.549,-121.988,230504.0,15.0,79.16666667
Scottsdale,Arizona,AZ,United States of America,33.495,-111.926,241361.0,28.84615385,68.75
Reno,Nevada,NV,United States of America,39.529,-119.814,264165.0,28.84615385,70.93023256
Winston Salem,North Carolina,NC,United States of America,36.095,-80.244,249545.0,5.0,94.44444444
Durham,North Carolina,NC,United States of America,35.995,-78.901,283506.0,39.58333333,75.0
Norfolk,Virginia,VA,United States of America,36.848,-76.292,238005.0,75.0,100.0
Orlando,Florida,FL,United States of America,28.543,-81.378,307573.0,48.38709677,75.73529412
Greensboro,North Carolina,NC,United States of America,36.073,-79.792,299035.0,31.81818182,76.66666667
Toledo,Ohio,OH,United States of America,41.651,-83.542,270871.0,75.0,75.0
Stockton,California,CA,United States of America,37.955,-121.293,320804.0,71.875,44.23076923
Lexington,Kentucky,KY,United States of America,38.047,-84.498,322570.0,40.0,89.28571429
Corpus Christi,Texas,TX,United States of America,27.797,-97.395,317863.0,68.18181818,70.0
Riverside,California,CA,United States of America,33.983,-117.374,314998.0,53.33333333,45.83333333
Santa Ana,California,CA,United States of America,33.745,-117.868,310227.0,55.0,50.0
Aurora,Colorado,CO,United States of America,39.726,-104.847,386261.0,33.33333333,45.83333333
Anaheim,California,CA,United States of America,33.833,-117.913,346824.0,33.33333333,55.76923077
Tampa,Florida,FL,United States of America,27.949,-82.458,384959.0,45.93023256,79.78723404
Bakersfield,California,CA,United States of America,35.373,-119.019,403455.0,68.47826087,16.66666667
Colorado Springs,Colorado,CO,United States of America,38.832,-104.822,478961.0,38.39285714,79.41176471
Virginia Beach,Virginia,VA,United States of America,36.845,-75.974,459470.0,36.66666667,85.52631579
Mesa,Arizona,AZ,United States of America,33.415,-111.831,504258.0,31.25,68.75
Wichita,Kansas,KS,United States of America,37.686,-97.338,397532.0,33.82352941,86.36363636
Henderson,Nevada,NV,United States of America,36.03,-114.983,317610.0,35.0,67.85714286
Fort Wayne,Indiana,IN,United States of America,41.08,-85.14,263886.0,43.75,66.66666667
Chula Vista,California,CA,United States of America,32.64,-117.082,275487.0,75.0,37.5
Chandler,Arizona,AZ,United States of America,33.306,-111.841,275987.0,45.0,65.0
Lubbock,Texas,TX,United States of America,33.585,-101.846,257141.0,34.09090909,69.64285714
Garland,Texas,TX,United States of America,32.913,-96.639,246018.0,50.0,75.0
Garden Grove,California,CA,United States of America,33.775,-117.941,171949.0,0.0,75.0
Gilbert,Arizona,AZ,United States of America,33.354,-111.79,267918.0,0.0,75.0
Tempe,Arizona,AZ,United States of America,33.415,-111.909,180587.0,46.42857143,68.18181818
Peoria,Arizona,AZ,United States of America,33.582,-112.238,190985.0,15.0,65.0
Surprise,Arizona,AZ,United States of America,33.63,-112.377,143148.0,0.0,100.0
Plano,Texas,TX,United States of America,33.02,-96.698,285494.0,32.14285714,78.57142857
Irving,Texas,TX,United States of America,32.814,-96.946,256684.0,37.5,62.5
Amarillo,Texas,TX,United States of America,35.207,-101.836,200393.0,53.125,53.125
Brownsville,Texas,TX,United States of America,25.902,-97.498,186738.0,68.75,57.14285714
Mesquite,Texas,TX,United States of America,32.767,-96.599,150108.0,75.0,50.0
McKinney,Texas,TX,United States of America,33.197,-96.616,195308.0,18.75,87.5
McAllen,Texas,TX,United States of America,26.203,-98.231,142210.0,35.71428571,87.5
Orem,Utah,UT,United States of America,40.297,-111.695,98129.0,33.33333333,65.625
Ogden,Utah,UT,United States of America,41.221,-111.972,87321.0,0.0,80.55555556
Haverhill,Massachusetts,MA,United States of America,42.777,-71.077,67787.0,50.0,100.0
Beverly,Massachusetts,MA,United States of America,42.55,-70.883,42670.0,0.0,100.0
Medford,Massachusetts,MA,United States of America,42.418,-71.11,59659.0,0.0,100.0
Woburn,Massachusetts,MA,United States of America,42.48,-71.152,40876.0,50.0,87.5
Norwalk,Connecticut,CT,United States of America,41.13,-73.429,91184.0,30.0,75.0
East Providence,Rhode Island,RI,United States of America,41.814,-71.37,47139.0,50.0,100.0
Woonsocket,Rhode Island,RI,United States of America,42.0,-71.516,43240.0,100.0,80.0
Venice,Florida,FL,United States of America,27.1,-82.45,25463.0,16.66666667,91.66666667
Columbia,Missouri,MO,United States of America,38.952,-92.329,126254.0,25.0,96.42857143
Napa,California,CA,United States of America,38.298,-122.289,79246.0,37.5,92.85714286
Jonesboro,Arkansas,AR,United States of America,35.842,-90.705,78576.0,50.0,50.0
Marion,Arkansas,AR,United States of America,35.202,-90.204,13752.0,75.0,0.0
Cabot,Arkansas,AR,United States of America,34.973,-92.016,26569.0,25.0,75.0
Russellville,Arkansas,AR,United States of America,35.278,-93.134,28940.0,50.0,93.75
Bullhead City,Arizona,AZ,United States of America,35.148,-114.568,41348.0,50.0,100.0
Texarkana,Arkansas,AR,United States of America,33.427,-94.039,29387.0,50.0,87.5
Rogers,Arkansas,AR,United States of America,36.333,-94.116,69908.0,12.5,87.5
Dothan,Alabama,AL,United States of America,31.224,-85.392,71072.0,62.5,100.0
Fort Smith,Arkansas,AR,United States of America,35.383,-94.421,89142.0,25.0,95.0
Tuscaloosa,Alabama,AL,United States of America,33.206,-87.567,99600.0,40.0,86.11111111
Fairbanks,Alaska,AK,United States of America,64.844,-147.719,32515.0,10.0,68.18181818
Van Buren,Arkansas,AR,United States of America,35.437,-94.353,23218.0,50.0,100.0
Kingman,Arizona,AZ,United States of America,35.19,-114.053,32689.0,75.0,100.0
Florence,Alabama,AL,United States of America,34.8,-87.677,40184.0,50.0,100.0
Yuma,Arizona,AZ,United States of America,32.713,-114.625,95548.0,45.0,77.77777778
Flagstaff,Arizona,AZ,United States of America,35.198,-111.648,76831.0,18.75,100.0
Palmer,Alaska,AK,United States of America,61.597,-149.115,5888.0,0.0,95.0
Huntsville,Alabama,AL,United States of America,34.73,-86.586,215006.0,25.0,95.0
Mobile,Alabama,AL,United States of America,30.691,-88.046,187041.0,57.14285714,75.0
Maricopa,Arizona,AZ,United States of America,33.057,-112.048,58125.0,50.0,100.0
Murfreesboro,Arkansas,AR,United States of America,34.064,-93.69,1495.0,37.5,87.5
Sierra Vista,Arizona,AZ,United States of America,31.555,-110.3,45308.0,30.0,75.0
Seward,Alaska,AK,United States of America,60.125,-149.392,2717.0,0.0,100.0
Hot Springs,Arkansas,AR,United States of America,34.504,-93.055,37930.0,0.0,100.0
Prescott,Arizona,AZ,United States of America,34.542,-112.469,45827.0,25.0,96.42857143
Wasilla,Alaska,AK,United States of America,61.582,-149.441,9054.0,33.33333333,96.42857143
Kodiak,Alaska,AK,United States of America,57.792,-152.404,5581.0,25.0,100.0
Shreveport,Louisiana,LA,United States of America,32.514,-93.748,187593.0,91.66666667,78.125
Gresham,Oregon,OR,United States of America,45.498,-122.431,114247.0,0.0,100.0
Beaverton,Oregon,OR,United States of America,45.487,-122.804,97494.0,6.25,81.25
Savannah,Georgia,GA,United States of America,32.079,-81.091,147780.0,52.08333333,64.0625
Sugar Land,Texas,TX,United States of America,29.595,-95.621,111026.0,37.5,87.5
Greeley,Colorado,CO,United States of America,40.425,-104.694,108795.0,0.0,95.0
Waukesha,Wisconsin,WI,United States of America,43.012,-88.232,71158.0,50.0,87.5
Appleton,Wisconsin,WI,United States of America,44.262,-88.407,75644.0,25.0,89.28571429
Eau Claire,Wisconsin,WI,United States of America,44.811,-91.498,69421.0,33.33333333,96.42857143
Charlottesville,Virginia,VA,United States of America,38.031,-78.482,46553.0,58.33333333,100.0
Beverly Hills,California,CA,United States of America,34.073,-118.4,32701.0,0.0,100.0
Yonkers,New York,NY,United States of America,40.932,-73.899,211569.0,50.0,100.0
Niagara Falls,New York,NY,United States of America,43.089,-79.063,48671.0,50.0,100.0
Waco,Texas,TX,United States of America,31.557,-97.132,138486.0,68.75,81.25
Frisco,Texas,TX,United States of America,33.151,-96.825,200509.0,29.16666667,87.5
Beaumont,Texas,TX,United States of America,30.082,-94.098,115282.0,87.5,70.83333333
Denton,Texas,TX,United States of America,33.215,-97.132,139869.0,37.5,62.5
Midland,Texas,TX,United States of America,31.998,-102.074,132524.0,100.0,75.0
Round Rock,Texas,TX,United States of America,30.509,-97.679,119468.0,0.0,75.0
Wichita Falls,Texas,TX,United States of America,33.912,-98.492,102316.0,43.75,62.5
Odessa,Texas,TX,United States of America,31.848,-102.369,114428.0,50.0,100.0
Lafayette,Louisiana,LA,United States of America,30.223,-92.02,121374.0,0.0,92.85714286
Roy,Utah,UT,United States of America,41.162,-112.026,39306.0,50.0,100.0
Sioux Falls,South Dakota,SD,United States of America,43.547,-96.727,192517.0,32.14285714,81.81818182
Hanover,New Hampshire,NH,United States of America,43.715,-72.184,11870.0,50.0,100.0
Springfield,Missouri,MO,United States of America,37.209,-93.292,169176.0,42.30769231,84.72222222
Galveston,Texas,TX,United States of America,29.305,-94.794,53695.0,50.0,85.71428571
Abingdon,Virginia,VA,United States of America,36.709,-81.971,8376.0,50.0,100.0
Camden,New Jersey,NJ,United States of America,39.944,-75.119,71791.0,50.0,87.5
Hoboken,New Jersey,NJ,United States of America,40.742,-74.032,60419.0,62.5,56.25
Livermore,California,CA,United States of America,37.682,-121.768,87955.0,54.16666667,75.0
Atlantic City,New Jersey,NJ,United States of America,39.364,-74.423,38497.0,37.5,91.66666667
Allentown,Pennsylvania,PA,United States of America,40.602,-75.472,125845.0,75.0,60.71428571
Grants Pass,Oregon,OR,United States of America,42.44,-123.327,39189.0,75.0,62.5
Zanesville,Ohio,OH,United States of America,39.94,-82.008,24765.0,85.0,50.0
Brookhaven,Georgia,GA,United States of America,33.861,-84.33,55161.0,75.0,50.0
Santa Cruz,California,CA,United States of America,36.974,-122.026,62956.0,34.61538462,88.23529412
Santa Clara,California,CA,United States of America,37.354,-121.954,127647.0,35.0,75.0
Santa Barbara,California,CA,United States of America,34.421,-119.702,88665.0,56.25,83.82352941
Akron,Ohio,OH,United States of America,41.085,-81.517,190469.0,83.33333333,65.0
West Palm Beach,Florida,FL,United States of America,26.713,-80.052,117415.0,66.66666667,72.5
Fort Lauderdale,Florida,FL,United States of America,26.119,-80.143,182760.0,42.10526316,81.57894737
Billings,Montana,MT,United States of America,45.783,-108.507,117116.0,40.0,75.0
West Lafayette,Indiana,IN,United States of America,40.424,-86.908,44595.0,75.0,75.0
Crescent City,California,CA,United States of America,41.767,-124.199,6673.0,0.0,100.0
Kalamazoo,Michigan,MI,United States of America,42.292,-85.583,73598.0,53.57142857,88.63636364
Kalamazoo,Michigan,MI,United States of America,42.314,-85.624,22777.0,53.57142857,88.63636364
San Mateo,California,CA,United States of America,37.564,-122.324,105661.0,20.0,80.0
Yuba City,California,CA,United States of America,39.141,-121.618,70117.0,50.0,100.0
Passaic,New Jersey,NJ,United States of America,40.863,-74.127,70537.0,75.0,50.0
Eugene,Oregon,OR,United States of America,44.05,-123.093,176654.0,36.25,75.0
Wilmington,Delaware,DE,United States of America,39.738,-75.553,70898.0,87.5,66.66666667
Poughkeepsie,New York,NY,United States of America,41.704,-73.929,31577.0,12.5,91.66666667
Puyallup,Washington,WA,United States of America,47.192,-122.294,42973.0,25.0,75.0
Rancho Palos Verdes,California,CA,United States of America,33.745,-118.389,42287.0,25.0,87.5
Augusta,Georgia,GA,United States of America,33.476,-81.966,202081.0,33.33333333,71.875
Grand Rapids,Michigan,MI,United States of America,42.963,-85.668,198917.0,44.44444444,69.23076923
Grand Rapids,Michigan,MI,United States of America,43.0,-85.569,18905.0,44.44444444,69.23076923
Grapevine,Texas,TX,United States of America,32.934,-97.078,50631.0,100.0,0.0
Knoxville,Tennessee,TN,United States of America,35.962,-83.918,190740.0,51.78571429,56.94444444
Belvidere,Illinois,IL,United States of America,42.259,-88.84,25339.0,25.0,75.0
Chattanooga,Tennessee,TN,United States of America,35.05,-85.31,181099.0,61.53846154,79.41176471
Spokane,Washington,WA,United States of America,47.657,-117.418,228989.0,25.0,77.88461538
Missoula,Montana,MT,United States of America,46.872,-113.994,73489.0,22.91666667,79.6875
Boulder,Colorado,CO,United States of America,40.018,-105.278,108250.0,47.91666667,85.0
Tacoma,Washington,WA,United States of America,47.253,-122.44,219346.0,50.0,78.94736842
Modesto,California,CA,United States of America,37.639,-120.997,218464.0,54.54545455,46.66666667
Aspen,Colorado,CO,United States of America,39.195,-106.837,7004.0,50.0,75.0
Vallejo,California,CA,United States of America,38.101,-122.255,126090.0,50.0,100.0
Thousand Oaks,California,CA,United States of America,34.175,-118.845,126966.0,20.83333333,92.5
Sunnyvale,California,CA,United States of America,37.369,-122.037,155805.0,55.55555556,77.08333333
Oxnard,California,CA,United States of America,34.198,-119.177,202063.0,0.0,95.0
Santa Rosa,California,CA,United States of America,38.44,-122.713,178127.0,29.54545455,81.25
Rapid City,South Dakota,SD,United States of America,44.081,-103.227,74703.0,37.5,92.5
Binghamton,New York,NY,United States of America,42.099,-75.913,47969.0,62.5,62.5
Bellevue,Washington,WA,United States of America,47.617,-122.202,151854.0,19.44444444,94.23076923
Fayetteville,Arkansas,AR,United States of America,36.063,-94.161,93949.0,20.0,94.44444444
Macon,Georgia,GA,United States of America,32.838,-83.628,157346.0,50.0,60.0
Walla Walla,Washington,WA,United States of America,46.067,-118.339,34060.0,0.0,100.0
Casper,Wyoming,WY,United States of America,42.85,-106.325,59038.0,33.33333333,100.0
Redmond,Washington,WA,United States of America,47.674,-122.122,73256.0,33.33333333,87.5
Peoria,Illinois,IL,United States of America,40.693,-89.591,113150.0,29.16666667,96.875
Aberdeen,Washington,WA,United States of America,46.975,-123.819,17013.0,0.0,100.0
Rockford,Illinois,IL,United States of America,42.271,-89.095,148655.0,60.0,60.71428571
Vancouver,Washington,WA,United States of America,45.63,-122.677,190915.0,29.80769231,73.07692308
Erie,Pennsylvania,PA,United States of America,42.129,-80.085,94831.0,100.0,80.0
Hollywood,Florida,FL,United States of America,26.011,-80.149,153067.0,37.5,100.0
Aberdeen,South Dakota,SD,United States of America,45.465,-98.488,28495.0,83.33333333,50.0
Reading,Pennsylvania,PA,United States of America,40.335,-75.928,95112.0,50.0,87.5
Brunswick,Vermont,VT,United States of America,44.734,-71.667,88.0,37.5,100.0
Columbus,Georgia,GA,United States of America,32.469,-84.988,206922.0,45.0,82.5
Mission,Texas,TX,United States of America,26.216,-98.326,85778.0,0.0,100.0
Huntington,West Virginia,WV,United States of America,38.421,-82.444,46842.0,25.0,75.0
Kingsport,Tennessee,TN,United States of America,36.547,-82.56,55442.0,93.75,56.25
Naperville,Illinois,IL,United States of America,41.774,-88.148,149540.0,12.5,83.33333333
Clearwater,Florida,FL,United States of America,27.966,-82.8,117292.0,35.71428571,85.71428571
Clifton,New Jersey,NJ,United States of America,40.867,-74.154,90296.0,0.0,100.0
Naples,Florida,FL,United States of America,26.147,-81.796,19115.0,30.76923077,80.76923077
Newport Beach,California,CA,United States of America,33.619,-117.929,85239.0,25.0,93.75
Scranton,Pennsylvania,PA,United States of America,41.409,-75.662,76328.0,41.66666667,92.85714286
Albany,Georgia,GA,United States of America,31.577,-84.156,69647.0,16.66666667,75.0
Duluth,Georgia,GA,United States of America,34.003,-84.144,31873.0,0.0,50.0
Blacksburg,Virginia,VA,United States of America,37.229,-80.414,44826.0,0.0,75.0
Newport,New Hampshire,NH,United States of America,43.359,-72.181,6299.0,0.0,100.0
Middletown,New York,NY,United States of America,41.447,-74.42,30345.0,25.0,100.0
Joplin,Missouri,MO,United States of America,37.084,-94.513,51762.0,18.75,79.16666667
Lancaster,Pennsylvania,PA,United States of America,40.038,-76.306,58039.0,45.0,66.66666667
Pocatello,Idaho,ID,United States of America,42.862,-112.451,56320.0,87.5,83.33333333
Simi Valley,California,CA,United States of America,34.272,-118.779,126356.0,25.0,82.14285714
Fairfield,California,CA,United States of America,38.249,-122.04,119881.0,37.5,87.5
Bangor,Maine,ME,United States of America,44.801,-68.771,31753.0,12.5,87.5
Rockville,Maryland,MD,United States of America,39.084,-77.153,67117.0,50.0,87.5
Laramie,Wyoming,WY,United States of America,41.311,-105.595,31407.0,0.0,100.0
Parkersburg,West Virginia,WV,United States of America,39.265,-81.563,29738.0,100.0,0.0
Fayetteville,North Carolina,NC,United States of America,35.053,-78.878,208501.0,66.66666667,77.08333333
Schenectady,New York,NY,United States of America,42.812,-73.939,67047.0,50.0,50.0
Newport News,Virginia,VA,United States of America,36.98,-76.431,186247.0,62.5,66.66666667
Holland,Indiana,IN,United States of America,38.246,-87.038,619.0,75.0,75.0
Adelanto,California,CA,United States of America,34.579,-117.41,38046.0,50.0,50.0
Goldsboro,North Carolina,NC,United States of America,35.386,-77.996,33657.0,100.0,60.0
Chester,Pennsylvania,PA,United States of America,39.85,-75.36,32605.0,50.0,87.5
El Cajon,California,CA,United States of America,32.795,-116.962,106215.0,25.0,50.0
Pembroke Pines,Florida,FL,United States of America,26.002,-80.223,171178.0,75.0,100.0
Adrian,Georgia,GA,United States of America,32.53,-82.592,552.0,87.5,83.33333333
Escondido,California,CA,United States of America,33.122,-117.081,151038.0,12.5,75.0
Farmville,North Carolina,NC,United States of America,35.595,-77.591,4461.0,25.0,75.0
Hattiesburg,Mississippi,MS,United States of America,31.327,-89.29,48730.0,41.66666667,82.14285714
Des Plaines,Illinois,IL,United States of America,42.042,-87.886,60675.0,50.0,100.0
Paradise,California,CA,United States of America,39.759,-121.624,4764.0,50.0,75.0
Everett,Washington,WA,United States of America,47.979,-122.202,110629.0,32.14285714,88.63636364
Temple,Texas,TX,United States of America,31.097,-97.343,82073.0,0.0,100.0
Bellingham,Washington,WA,United States of America,48.75,-122.479,91482.0,30.0,94.73684211
Chico,California,CA,United States of America,39.728,-121.839,101475.0,50.0,72.5
Alton,Illinois,IL,United States of America,38.89,-90.184,25676.0,75.0,25.0
Grand Island,Nebraska,NE,United States of America,40.924,-98.339,53131.0,0.0,75.0
Kenosha,Wisconsin,WI,United States of America,42.584,-87.823,99986.0,12.5,87.5
White Plains,New York,NY,United States of America,41.034,-73.763,59559.0,62.5,37.5
Urbana,Illinois,IL,United States of America,40.112,-88.207,38336.0,12.5,87.5
Cape Coral,Florida,FL,United States of America,26.563,-81.95,194016.0,25.0,75.0
Great Falls,Montana,MT,United States of America,47.505,-111.303,60442.0,25.0,75.0
Ames,Iowa,IA,United States of America,42.023,-93.62,66427.0,50.0,66.66666667
Spanish Fork,Utah,UT,United States of America,40.11,-111.655,42602.0,0.0,75.0
Logan,Utah,UT,United States of America,41.731,-111.835,52778.0,0.0,67.85714286
Tooele,Utah,UT,United States of America,40.531,-112.299,35742.0,50.0,100.0
Farmington,Utah,UT,United States of America,40.98,-111.888,24531.0,50.0,100.0
Lewiston,Utah,UT,United States of America,41.968,-111.886,1939.0,0.0,75.0
Berkeley,California,CA,United States of America,37.871,-122.268,124321.0,36.11111111,79.16666667
Ann Arbor,Michigan,MI,United States of America,42.281,-83.748,123851.0,51.78571429,76.31578947
Ann Arbor,Michigan,MI,United States of America,42.329,-83.678,4673.0,51.78571429,76.31578947
Pasadena,California,CA,United States of America,34.148,-118.143,138699.0,20.0,65.0
Key West,Florida,FL,United States of America,24.555,-81.802,26444.0,0.0,100.0
Duluth,Minnesota,MN,United States of America,46.788,-92.099,86697.0,25.0,96.42857143
Glendale,California,CA,United States of America,34.143,-118.258,196543.0,45.83333333,77.5
San Bernardino,California,CA,United States of America,34.106,-117.292,222101.0,50.0,0.0
Pensacola,Florida,FL,United States of America,30.409,-87.214,54312.0,53.125,66.17647059
Cedar Rapids,Iowa,IA,United States of America,41.978,-91.664,137710.0,25.0,89.28571429
Evansville,Indiana,IN,United States of America,37.97,-87.574,117298.0,37.5,68.75
Kansas City,Kansas,KS,United States of America,39.116,-94.627,156607.0,31.25,68.75
Rochester,Minnesota,MN,United States of America,44.023,-92.463,121395.0,62.5,80.55555556
Mountain View,California,CA,United States of America,37.39,-122.081,82376.0,33.33333333,91.66666667
Pomona,California,CA,United States of America,34.059,-117.752,151713.0,75.0,37.5
South Bend,Indiana,IN,United States of America,41.676,-86.252,103453.0,33.33333333,92.85714286
Minot,North Dakota,ND,United States of America,48.236,-101.293,48377.0,75.0,68.75
Monterey,California,CA,United States of America,36.601,-121.894,30218.0,34.375,91.66666667
Iowa City,Iowa,IA,United States of America,41.661,-91.535,74828.0,37.5,83.33333333
St Augustine,Florida,FL,United States of America,29.896,-81.312,14329.0,62.5,87.5
Gainesville,Florida,FL,United States of America,29.652,-82.325,141085.0,34.375,87.5
Palm Springs,California,CA,United States of America,33.823,-116.546,44575.0,87.5,43.75
Salinas,California,CA,United States of America,36.678,-121.655,163542.0,50.0,100.0
Ontario,California,CA,United States of America,34.063,-117.651,175265.0,25.0,33.33333333
Eureka,California,CA,United States of America,40.804,-124.166,26512.0,0.0,100.0
Oceanside,California,CA,United States of America,33.195,-117.384,174068.0,75.0,75.0
Palmdale,California,CA,United States of America,34.58,-118.117,169450.0,50.0,32.14285714
Torrance,California,CA,United States of America,33.836,-118.34,147067.0,0.0,75.0
Sioux City,Iowa,IA,United States of America,42.494,-96.403,85797.0,50.0,100.0
Bloomington,Indiana,IN,United States of America,39.167,-86.535,79168.0,55.0,83.33333333
Ventura,California,CA,United States of America,34.281,-119.301,110763.0,35.0,85.0
Concord,California,CA,United States of America,37.977,-122.034,125410.0,12.5,62.5
Flint,Michigan,MI,United States of America,43.017,-83.691,81252.0,87.5,62.5
Flint,Michigan,MI,United States of America,43.013,-83.776,31447.0,87.5,62.5
Gulfport,Mississippi,MS,United States of America,30.369,-89.093,72926.0,0.0,100.0
Daytona Beach,Florida,FL,United States of America,29.211,-81.023,72647.0,46.42857143,96.42857143
Biloxi,Mississippi,MS,United States of America,30.395,-88.886,49449.0,50.0,100.0
Fort Collins,Colorado,CO,United States of America,40.587,-105.077,169810.0,35.0,86.84210526
Alameda,California,CA,United States of America,37.764,-122.243,78280.0,37.5,62.5
Carlsbad,California,CA,United States of America,33.158,-117.351,114746.0,25.0,75.0
Hayward,California,CA,United States of America,37.671,-122.085,162954.0,25.0,87.5
Fontana,California,CA,United States of America,34.101,-117.436,208393.0,35.0,45.0
Santa Clarita,California,CA,United States of America,34.38,-118.541,228673.0,31.25,87.5
Canton,Ohio,OH,United States of America,40.798,-81.375,70872.0,25.0,83.33333333
Roseville,California,CA,United States of America,38.752,-121.288,147773.0,40.0,93.75
Anderson,Indiana,IN,United States of America,40.105,-85.678,54788.0,25.0,90.0
Sarasota,Florida,FL,United States of America,27.336,-82.532,54842.0,25.0,90.38461538
Williamsburg,Virginia,VA,United States of America,37.269,-76.707,15425.0,0.0,100.0
Winchester,Virginia,VA,United States of America,39.186,-78.163,28120.0,50.0,100.0
Terre Haute,Indiana,IN,United States of America,39.466,-87.414,58389.0,12.5,75.0
Walnut Creek,California,CA,United States of America,37.897,-122.06,70127.0,8.333333333,83.33333333
Lawrence,Kansas,KS,United States of America,38.971,-95.236,94934.0,50.0,87.5
Owensboro,Kentucky,KY,United States of America,37.774,-87.111,60183.0,66.66666667,60.71428571
Carson,California,CA,United States of America,33.832,-118.278,95558.0,100.0,25.0
Corona,California,CA,United States of America,33.876,-117.567,157136.0,37.5,50.0
Lancaster,California,CA,United States of America,34.697,-118.148,173516.0,12.5,87.5
Fullerton,California,CA,United States of America,33.87,-117.924,143617.0,25.0,100.0
Victorville,California,CA,United States of America,34.537,-117.294,134810.0,50.0,85.71428571
Antioch,California,CA,United States of America,38.005,-121.806,115291.0,75.0,0.0
Redding,California,CA,United States of America,40.586,-122.39,93611.0,45.83333333,72.22222222
Rancho Cucamonga,California,CA,United States of America,34.107,-117.594,174453.0,16.66666667,66.66666667
El Centro,California,CA,United States of America,32.793,-115.563,44322.0,66.66666667,78.57142857
Visalia,California,CA,United States of America,36.33,-119.292,141384.0,75.0,40.0
Idaho Falls,Idaho,ID,United States of America,43.491,-112.039,64818.0,16.66666667,95.83333333
Tyler,Texas,TX,United States of America,32.351,-95.301,105995.0,45.83333333,66.66666667
Merced,California,CA,United States of America,37.302,-120.485,86333.0,50.0,87.5
Costa Mesa,California,CA,United States of America,33.641,-117.919,111918.0,40.0,56.25
Yakima,Washington,WA,United States of America,46.602,-120.506,96968.0,31.25,78.125
Coeur dAlene,Idaho,ID,United States of America,47.674,-116.784,54628.0,50.0,79.16666667
Moscow,Idaho,ID,United States of America,46.734,-117.001,25435.0,62.5,37.5
Overland Park,Kansas,KS,United States of America,38.986,-94.668,197238.0,16.66666667,98.21428571
Lewiston,Maine,ME,United States of America,44.101,-70.215,37121.0,50.0,100.0
Lawton,Oklahoma,OK,United States of America,34.605,-98.392,90381.0,50.0,100.0
Redwood City,California,CA,United States of America,37.484,-122.226,84292.0,0.0,100.0
Coral Springs,Florida,FL,United States of America,26.273,-80.266,134394.0,50.0,100.0
Decatur,Illinois,IL,United States of America,39.843,-88.954,70522.0,37.5,70.83333333
Mission Viejo,California,CA,United States of America,33.597,-117.669,93653.0,75.0,75.0
Fort Myers,Florida,FL,United States of America,26.643,-81.87,86395.0,85.0,70.58823529
Albany,Oregon,OR,United States of America,44.635,-123.104,56472.0,12.5,75.0
Encinitas,California,CA,United States of America,33.037,-117.292,62007.0,12.5,75.0
Alexandria,Minnesota,MN,United States of America,45.874,-95.379,14335.0,25.0,100.0
Twin Falls,Idaho,ID,United States of America,42.556,-114.47,51807.0,75.0,75.0
Merrillville,Indiana,IN,United States of America,41.486,-87.336,36444.0,50.0,87.5
Ankeny,Iowa,IA,United States of America,41.732,-93.6,67887.0,50.0,100.0
Bozeman,Montana,MT,United States of America,45.679,-111.037,53293.0,5.555555556,100.0
Greenville,South Carolina,SC,United States of America,34.851,-82.399,70720.0,18.33333333,91.25
New Braunfels,Texas,TX,United States of America,29.703,-98.125,90403.0,31.25,100.0
Pittsfield,Illinois,IL,United States of America,39.608,-90.821,4206.0,50.0,100.0
Wheaton,Illinois,IL,United States of America,41.867,-88.106,53970.0,0.0,100.0
Macomb,Illinois,IL,United States of America,40.459,-90.671,15051.0,0.0,75.0
McHenry,Illinois,IL,United States of America,42.343,-88.274,27135.0,75.0,75.0
Lockport,Illinois,IL,United States of America,41.589,-88.057,26094.0,0.0,100.0
Quincy,Illinois,IL,United States of America,39.933,-91.409,39463.0,25.0,91.66666667
Corning,New York,NY,United States of America,42.149,-77.059,10551.0,37.5,100.0
Crystal Lake,Illinois,IL,United States of America,42.241,-88.316,40269.0,25.0,68.75
Bloomington,Illinois,IL,United States of America,40.479,-88.994,78680.0,25.0,93.75
Collinsville,Illinois,IL,United States of America,38.67,-89.986,24366.0,25.0,75.0
Rock Island,Illinois,IL,United States of America,41.509,-90.576,37108.0,50.0,79.16666667
Champaign,Illinois,IL,United States of America,40.116,-88.243,88302.0,33.33333333,58.33333333
Mount Vernon,Illinois,IL,United States of America,38.318,-88.904,14600.0,0.0,100.0
Burlington,Iowa,IA,United States of America,40.807,-91.102,23982.0,37.5,87.5
DeKalb,Illinois,IL,United States of America,41.93,-88.75,40290.0,50.0,75.0
Bradenton,Florida,FL,United States of America,27.495,-82.571,55698.0,42.85714286,83.33333333
Hazel Park,Michigan,MI,United States of America,42.461,-83.104,14983.0,25.0,25.0
Kissimmee,Florida,FL,United States of America,28.292,-81.408,79226.0,68.75,70.0
Fort Pierce,Florida,FL,United States of America,27.447,-80.326,47297.0,0.0,75.0
Deerfield Beach,Florida,FL,United States of America,26.319,-80.101,86859.0,36.11111111,91.66666667
Paso Robles,California,CA,United States of America,35.623,-120.688,31490.0,75.0,100.0
Germantown,Tennessee,TN,United States of America,35.093,-89.809,41333.0,25.0,100.0
Florence,South Carolina,SC,United States of America,34.197,-79.766,39899.0,50.0,100.0
Yucaipa,California,CA,United States of America,34.034,-117.041,54542.0,75.0,50.0
East Chicago,Indiana,IN,United States of America,41.629,-87.454,26370.0,50.0,100.0
Lorain,Ohio,OH,United States of America,41.466,-82.175,65211.0,50.0,0.0
Palm Coast,Florida,FL,United States of America,29.555,-81.211,89258.0,55.0,90.0
Fairfax,South Carolina,SC,United States of America,32.959,-81.236,1505.0,28.84615385,78.33333333
Apple Valley,California,CA,United States of America,34.501,-117.19,75791.0,0.0,100.0
Thomasville,North Carolina,NC,United States of America,35.883,-80.082,27183.0,50.0,87.5
High Point,North Carolina,NC,United States of America,35.957,-80.006,114059.0,12.5,75.0
Norwich,Connecticut,CT,United States of America,41.551,-72.088,40125.0,50.0,92.85714286
San Rafael,California,CA,United States of America,37.973,-122.527,61271.0,0.0,100.0
Lafayette,Indiana,IN,United States of America,40.419,-86.893,70783.0,56.25,66.66666667
Lakeland,Florida,FL,United States of America,28.045,-81.956,112641.0,45.0,100.0
Barrington,Rhode Island,RI,United States of America,41.748,-71.315,17153.0,25.0,50.0
Santa Maria,California,CA,United States of America,34.953,-120.436,109707.0,75.0,83.33333333
Asheville,North Carolina,NC,United States of America,35.595,-82.552,94589.0,48.0,88.88888889
Gainesville,Georgia,GA,United States of America,34.299,-83.827,42296.0,50.0,100.0
Morgantown,West Virginia,WV,United States of America,39.63,-79.956,30347.0,75.0,86.11111111
Atascadero,California,CA,United States of America,35.489,-120.668,29773.0,100.0,100.0
Citrus Heights,California,CA,United States of America,38.707,-121.29,87583.0,50.0,100.0
Wilmington,North Carolina,NC,United States of America,34.235,-77.949,115451.0,50.0,100.0
Tupelo,Mississippi,MS,United States of America,34.257,-88.705,37923.0,25.0,85.71428571
Perry,Georgia,GA,United States of America,32.472,-83.726,20624.0,50.0,87.5
Davis,California,CA,United States of America,38.543,-121.74,66850.0,25.0,75.0
College Park,Maryland,MD,United States of America,38.981,-76.938,34740.0,0.0,100.0
Bend,Oregon,OR,United States of America,44.058,-121.313,99178.0,0.0,100.0
Chapel Hill,North Carolina,NC,United States of America,35.913,-79.056,61960.0,41.66666667,83.33333333
Pueblo,Colorado,CO,United States of America,38.256,-104.624,111876.0,50.0,95.0
Clinton,Iowa,IA,United States of America,41.841,-90.188,24469.0,50.0,87.5
Renton,Washington,WA,United States of America,47.48,-122.208,106785.0,16.66666667,62.5
Highland,California,CA,United States of America,34.128,-117.209,56999.0,100.0,50.0
Bowling Green,Kentucky,KY,United States of America,36.995,-86.443,72294.0,100.0,91.66666667
Bremerton,Washington,WA,United States of America,47.565,-122.627,43505.0,25.0,100.0
College Station,Texas,TX,United States of America,30.628,-96.335,120511.0,35.0,77.5
Ashland,Ohio,OH,United States of America,40.869,-82.315,19225.0,8.333333333,83.33333333
Greensburg,Pennsylvania,PA,United States of America,40.302,-79.544,14976.0,50.0,87.5
St Cloud,Minnesota,MN,United States of America,45.56,-94.162,68881.0,0.0,100.0
Butte,North Dakota,ND,United States of America,47.837,-100.666,70.0,56.25,75.0
Farmington,Connecticut,CT,United States of America,41.726,-72.842,26712.0,50.0,75.0
New Rochelle,New York,NY,United States of America,40.907,-73.784,79726.0,25.0,50.0
Pleasanton,California,CA,United States of America,37.663,-121.875,79871.0,0.0,100.0
Corvallis,Oregon,OR,United States of America,44.564,-123.262,59922.0,50.0,75.0
Lake Forest,California,CA,United States of America,33.647,-117.686,85858.0,0.0,87.5
Gaithersburg,Maryland,MD,United States of America,39.144,-77.202,69657.0,12.5,91.66666667
Easton,Maryland,MD,United States of America,38.773,-76.07,17101.0,50.0,100.0
Hyattsville,Maryland,MD,United States of America,38.96,-76.952,21187.0,75.0,50.0
Fairfield,Connecticut,CT,United States of America,41.175,-73.274,61512.0,62.5,79.16666667
Trumbull,Connecticut,CT,United States of America,41.263,-73.214,36827.0,25.0,91.66666667
Laurel,Maryland,MD,United States of America,39.103,-76.843,30060.0,50.0,87.5
Athens,Ohio,OH,United States of America,39.329,-82.101,23849.0,0.0,100.0
Hagerstown,Maryland,MD,United States of America,39.642,-77.72,43527.0,50.0,87.5
Salisbury,Maryland,MD,United States of America,38.365,-75.601,33050.0,0.0,100.0
Georgetown,Delaware,DE,United States of America,38.69,-75.387,7134.0,50.0,100.0
Milton,Delaware,DE,United States of America,38.775,-75.31,3291.0,100.0,50.0
Richmond,Kentucky,KY,United States of America,37.747,-84.294,34585.0,47.36842105,80.26315789
Keene,New Hampshire,NH,United States of America,42.934,-72.279,23047.0,50.0,100.0
Johnson City,Tennessee,TN,United States of America,36.316,-82.353,71046.0,20.0,90.0
Spartanburg,South Carolina,SC,United States of America,34.95,-81.932,38732.0,25.0,100.0
Victoria,Texas,TX,United States of America,28.799,-97.006,65534.0,25.0,100.0
Banning,California,CA,United States of America,33.925,-116.878,29505.0,50.0,80.0
Barnstable,Massachusetts,MA,United States of America,41.655,-70.28,48916.0,75.0,100.0
Bartlesville,Oklahoma,OK,United States of America,36.751,-95.978,37290.0,75.0,75.0
Baytown,Texas,TX,United States of America,29.735,-94.978,83701.0,50.0,100.0
Beaufort,North Carolina,NC,United States of America,34.728,-76.653,4464.0,75.0,50.0
Beckley,West Virginia,WV,United States of America,37.778,-81.188,17286.0,50.0,100.0
Belmont,California,CA,United States of America,37.52,-122.276,28335.0,25.0,100.0
Bentonville,Arkansas,AR,United States of America,36.372,-94.209,54164.0,0.0,91.66666667
York,Pennsylvania,PA,United States of America,39.962,-76.728,44800.0,75.0,64.28571429
Delray Beach,Florida,FL,United States of America,26.462,-80.073,66846.0,0.0,100.0
Newport,Oregon,OR,United States of America,44.621,-124.043,10256.0,75.0,100.0
Grass Valley,California,CA,United States of America,39.224,-121.055,14016.0,62.5,62.5
Mount Vernon,New York,NY,United States of America,40.913,-73.837,73893.0,50.0,100.0
Medford,Oregon,OR,United States of America,42.327,-122.872,85824.0,25.0,85.71428571
Ukiah,California,CA,United States of America,39.147,-123.21,16607.0,50.0,100.0
Dublin,California,CA,United States of America,37.706,-121.924,72589.0,0.0,100.0
Ojai,California,CA,United States of America,34.448,-119.247,7637.0,50.0,87.5
Wheeling,West Virginia,WV,United States of America,40.064,-80.723,27052.0,75.0,70.0
Temecula,California,CA,United States of America,33.493,-117.149,110003.0,27.77777778,71.42857143
Murrieta,California,CA,United States of America,33.554,-117.214,110949.0,25.0,100.0
Indio,California,CA,United States of America,33.719,-116.216,89137.0,25.0,50.0
Myrtle Beach,South Carolina,SC,United States of America,33.693,-78.883,35682.0,50.0,87.5
Redondo Beach,California,CA,United States of America,33.844,-118.388,71576.0,37.5,100.0
Kent,Washington,WA,United States of America,47.381,-122.231,136588.0,0.0,100.0
Texarkana,Texas,TX,United States of America,33.421,-94.046,36193.0,75.0,64.28571429
Kennewick,Washington,WA,United States of America,46.209,-119.117,83921.0,20.0,95.0
Camarillo,California,CA,United States of America,34.217,-119.039,70741.0,0.0,100.0
Kearney,Nebraska,NE,United States of America,40.698,-99.082,33790.0,75.0,100.0
Klamath Falls,Oregon,OR,United States of America,42.225,-121.783,21813.0,62.5,83.33333333
Roseburg,Oregon,OR,United States of America,43.21,-123.342,23683.0,40.0,75.0
Danville,California,CA,United States of America,37.822,-122.0,43582.0,75.0,100.0
North Charleston,South Carolina,SC,United States of America,32.854,-79.974,114852.0,50.0,100.0
Oroville,California,CA,United States of America,39.503,-121.566,20042.0,0.0,100.0
Madera,California,CA,United States of America,36.961,-120.061,66224.0,50.0,75.0
Glendora,California,CA,United States of America,34.136,-117.865,52558.0,25.0,50.0
Panama City,Florida,FL,United States of America,30.155,-85.66,32939.0,37.5,50.0
Longview,Texas,TX,United States of America,32.495,-94.74,81638.0,75.0,85.0
Cary,North Carolina,NC,United States of America,35.787,-78.783,174721.0,62.5,50.0
Hamilton,Ohio,OH,United States of America,39.399,-84.56,63399.0,50.0,87.5
Marietta,Georgia,GA,United States of America,33.953,-84.55,60972.0,10.0,80.55555556
Stillwater,Oklahoma,OK,United States of America,36.116,-97.059,48394.0,50.0,93.75
Kalispell,Montana,MT,United States of America,48.199,-114.314,24558.0,0.0,89.28571429
Livonia,Michigan,MI,United States of America,42.376,-83.353,95535.0,25.0,100.0
Montclair,California,CA,United States of America,34.078,-117.69,37865.0,0.0,75.0
Manhattan,Kansas,KS,United States of America,39.186,-96.576,54100.0,0.0,100.0
Yucca Valley,California,CA,United States of America,34.121,-116.437,21738.0,50.0,87.5
Lake Charles,Louisiana,LA,United States of America,30.229,-93.217,84872.0,60.0,66.66666667
Huntsville,Texas,TX,United States of America,30.724,-95.551,45941.0,50.0,100.0
Moss Point,Mississippi,MS,United States of America,30.425,-88.529,12147.0,50.0,91.66666667
Verona,Mississippi,MS,United States of America,34.19,-88.723,2792.0,50.0,100.0
Olive Branch,Mississippi,MS,United States of America,34.963,-89.829,39711.0,0.0,100.0
Harlingen,Texas,TX,United States of America,26.193,-97.697,71829.0,0.0,100.0
Valparaiso,Indiana,IN,United States of America,41.468,-87.061,34151.0,50.0,100.0
Jackson,Wyoming,WY,United States of America,43.48,-110.762,10760.0,50.0,100.0
Loveland,Colorado,CO,United States of America,40.395,-105.074,76378.0,35.0,72.5
Bloomfield Hills,Michigan,MI,United States of America,42.575,-83.254,4460.0,100.0,0.0
Boone,North Carolina,NC,United States of America,36.213,-81.669,19092.0,50.0,75.0
Bowling Green,Ohio,OH,United States of America,41.375,-83.65,30808.0,16.66666667,100.0
Boynton Beach,Florida,FL,United States of America,26.529,-80.064,80380.0,50.0,100.0
Brainerd,Minnesota,MN,United States of America,46.355,-94.198,14395.0,50.0,100.0
Branson,Missouri,MO,United States of America,36.645,-93.264,12638.0,0.0,100.0
Brattleboro,Vermont,VT,United States of America,42.862,-72.618,12184.0,50.0,100.0
Breckenridge,Colorado,CO,United States of America,39.5,-106.043,5078.0,25.0,100.0
Kokomo,Indiana,IN,United States of America,40.487,-86.131,59604.0,25.0,90.0
Sandpoint,Idaho,ID,United States of America,48.281,-116.56,8639.0,0.0,100.0
Wisconsin Dells,Wisconsin,WI,United States of America,43.635,-89.782,2942.0,50.0,100.0
Albert Lea,Minnesota,MN,United States of America,43.648,-93.369,18492.0,25.0,100.0
Corcoran,California,CA,United States of America,36.098,-119.56,22339.0,50.0,50.0
Bridgeton,New Jersey,NJ,United States of America,39.427,-75.236,27263.0,50.0,100.0
Tustin,California,CA,United States of America,33.746,-117.825,80276.0,37.5,75.0
Ocala,Florida,FL,United States of America,29.187,-82.136,63591.0,32.5,77.5
Gillette,Wyoming,WY,United States of America,44.293,-105.504,33403.0,50.0,100.0
San Angelo,Texas,TX,United States of America,31.464,-100.437,99893.0,37.5,100.0
Pinehurst,Georgia,GA,United States of America,32.196,-83.76,309.0,0.0,100.0
Imperial,California,CA,United States of America,32.838,-115.572,20263.0,50.0,87.5
Largo,Florida,FL,United States of America,27.909,-82.788,82485.0,75.0,75.0
Muncie,Indiana,IN,United States of America,40.194,-85.386,65194.0,50.0,87.5
Elmira,New York,NY,United States of America,42.09,-76.808,26523.0,25.0,100.0
Laurel,Mississippi,MS,United States of America,31.692,-89.131,17161.0,50.0,87.5
La Crosse,Wisconsin,WI,United States of America,43.812,-91.251,52680.0,50.0,100.0
Franklin,Massachusetts,MA,United States of America,42.083,-71.397,33261.0,12.5,87.5
Elizabethtown,Kentucky,KY,United States of America,37.702,-85.869,31394.0,0.0,90.0
Selah,Washington,WA,United States of America,46.647,-120.539,8153.0,25.0,75.0
Lake Elsinore,California,CA,United States of America,33.668,-117.328,70265.0,75.0,50.0
Aliso Viejo,California,CA,United States of America,33.575,-117.725,52176.0,75.0,100.0
Melbourne,Florida,FL,United States of America,28.08,-80.604,84678.0,39.28571429,80.0
Muskegon,Michigan,MI,United States of America,43.234,-86.248,38318.0,50.0,100.0
Muskegon,Michigan,MI,United States of America,43.268,-86.17,17596.0,50.0,100.0
Safety Harbor,Florida,FL,United States of America,28.007,-82.698,17072.0,75.0,100.0
Marshall,Missouri,MO,United States of America,39.114,-93.202,13806.0,50.0,100.0
Rolla,Missouri,MO,United States of America,37.948,-91.774,19943.0,25.0,100.0
Taos,Missouri,MO,United States of America,38.496,-92.079,1150.0,75.0,100.0
Libby,Montana,MT,United States of America,48.386,-115.557,2775.0,25.0,100.0
Crown Point,Indiana,IN,United States of America,41.418,-87.364,33899.0,25.0,87.5
Wenatchee,Washington,WA,United States of America,47.425,-120.311,35508.0,0.0,25.0
Liberty,Missouri,MO,United States of America,39.246,-94.42,30167.0,50.0,62.5
Chesterfield,Missouri,MO,United States of America,38.664,-90.578,49999.0,37.5,87.5
OFallon,Missouri,MO,United States of America,38.811,-90.7,91316.0,100.0,0.0
Youngstown,New York,NY,United States of America,43.25,-79.042,1859.0,58.33333333,75.0
Forsyth,Montana,MT,United States of America,46.266,-106.678,1647.0,100.0,80.0
Rock Hill,South Carolina,SC,United States of America,34.925,-81.025,74372.0,62.5,87.5
Morristown,New Jersey,NJ,United States of America,40.797,-74.477,20180.0,100.0,100.0
Leesburg,Georgia,GA,United States of America,31.732,-84.169,3480.0,50.0,87.5
Oshkosh,Nebraska,NE,United States of America,41.408,-102.345,809.0,75.0,50.0
Brentwood,Missouri,MO,United States of America,38.619,-90.348,8233.0,0.0,75.0
Cape Canaveral,Florida,FL,United States of America,28.394,-80.608,9972.0,0.0,75.0
Clayton,Missouri,MO,United States of America,38.643,-90.335,17355.0,50.0,87.5
Vero Beach,Florida,FL,United States of America,27.647,-80.392,16354.0,62.5,93.75
Lawrenceville,Georgia,GA,United States of America,33.956,-83.988,30629.0,0.0,100.0
Weatherford,Texas,TX,United States of America,32.759,-97.797,30854.0,0.0,100.0
Del Rio,Texas,TX,United States of America,29.36,-100.899,34673.0,25.0,100.0
Warrenton,Virginia,VA,United States of America,38.718,-77.797,10057.0,0.0,100.0
Mansfield,Texas,TX,United States of America,32.563,-97.142,72602.0,0.0,90.0
Jeffersonville,Indiana,IN,United States of America,38.274,-85.742,49447.0,50.0,87.5
Lake Worth,Texas,TX,United States of America,32.813,-97.431,4711.0,100.0,100.0
Katy,Texas,TX,United States of America,29.791,-95.827,21894.0,50.0,60.0
McLean,Texas,TX,United States of America,35.232,-100.6,665.0,25.0,100.0
Leander,Texas,TX,United States of America,30.579,-97.853,59202.0,0.0,100.0
San Marcos,Texas,TX,United States of America,29.883,-97.941,67553.0,0.0,100.0
League City,Texas,TX,United States of America,29.508,-95.095,114392.0,25.0,75.0
Pullman,Washington,WA,United States of America,46.73,-117.182,32901.0,0.0,100.0
Mansfield,Ohio,OH,United States of America,40.759,-82.516,47534.0,25.0,75.0
Fort Dodge,Iowa,IA,United States of America,42.506,-94.183,24871.0,75.0,25.0
Lakeville,Minnesota,MN,United States of America,44.65,-93.243,69490.0,50.0,100.0
Titusville,Florida,FL,United States of America,28.614,-80.808,48789.0,25.0,100.0
Lakewood,Washington,WA,United States of America,47.172,-122.518,63612.0,75.0,100.0
Longview,Washington,WA,United States of America,46.138,-122.934,37818.0,75.0,0.0
Oxford,Mississippi,MS,United States of America,34.367,-89.519,25416.0,0.0,100.0
Lima,Ohio,OH,United States of America,40.74,-84.105,35579.0,50.0,75.0
Fort Walton Beach,Florida,FL,United States of America,30.405,-86.606,20922.0,50.0,100.0
Paducah,Kentucky,KY,United States of America,37.087,-88.597,27137.0,62.5,85.71428571
Coon Rapids,Minnesota,MN,United States of America,45.146,-93.285,63599.0,50.0,100.0
Traverse City,Michigan,MI,United States of America,44.754,-85.603,15678.0,25.0,75.0
Rocklin,California,CA,United States of America,38.791,-121.236,71601.0,0.0,100.0
Sheboygan,Wisconsin,WI,United States of America,43.751,-87.713,49929.0,0.0,100.0
Marina,California,CA,United States of America,36.681,-121.79,22359.0,50.0,100.0
Sebring,Florida,FL,United States of America,27.471,-81.452,10729.0,50.0,25.0
Alexandria,Louisiana,LA,United States of America,31.311,-92.445,45275.0,50.0,100.0
Jackson,Tennessee,TN,United States of America,35.614,-88.819,68205.0,12.5,96.875
Eden Prairie,Minnesota,MN,United States of America,44.854,-93.47,64198.0,8.333333333,91.66666667
Clovis,New Mexico,NM,United States of America,34.401,-103.205,38567.0,100.0,0.0
Fond du Lac,Wisconsin,WI,United States of America,43.779,-88.447,44678.0,75.0,75.0
New Port Richey,Florida,FL,United States of America,28.247,-82.718,16728.0,0.0,50.0
Jupiter,Florida,FL,United States of America,26.934,-80.094,61047.0,25.0,100.0
Jacksonville,North Carolina,NC,United States of America,34.751,-77.431,72723.0,0.0,100.0
Lebanon,Ohio,OH,United States of America,39.433,-84.208,20841.0,50.0,100.0
Slidell,Louisiana,LA,United States of America,30.278,-89.782,28781.0,100.0,50.0
Torrington,Wyoming,WY,United States of America,42.065,-104.15,6119.0,75.0,90.0
Longmont,Colorado,CO,United States of America,40.167,-105.103,98885.0,75.0,0.0
East Orange,New Jersey,NJ,United States of America,40.761,-74.211,69612.0,75.0,100.0
Foster City,California,CA,United States of America,37.558,-122.264,33805.0,0.0,100.0
Statesboro,Georgia,GA,United States of America,32.449,-81.783,33438.0,41.66666667,75.0
DeLand,Florida,FL,United States of America,29.028,-81.303,37351.0,25.0,81.25
Grand Junction,Colorado,CO,United States of America,39.067,-108.564,65560.0,18.75,85.41666667
North Platte,Nebraska,NE,United States of America,41.134,-100.764,23390.0,25.0,100.0
Troy,Michigan,MI,United States of America,42.606,-83.15,87294.0,25.0,62.5
Weston,Florida,FL,United States of America,26.1,-80.383,68107.0,0.0,100.0
Mesquite,Nevada,NV,United States of America,36.804,-114.065,20471.0,0.0,100.0
Novi,Michigan,MI,United States of America,42.481,-83.476,66243.0,0.0,100.0
Brunswick,Georgia,GA,United States of America,31.15,-81.492,15210.0,37.5,78.125
Long Branch,New Jersey,NJ,United States of America,40.305,-73.983,31667.0,25.0,75.0
Monroe,Michigan,MI,United States of America,41.916,-83.398,20462.0,25.0,100.0
Monroe,Michigan,MI,United States of America,41.896,-83.436,14391.0,25.0,100.0
Dalton,Georgia,GA,United States of America,34.77,-84.968,34417.0,25.0,100.0
Summit,New Jersey,NJ,United States of America,40.718,-74.358,22719.0,62.5,37.5
Hilton Head Island,South Carolina,SC,United States of America,32.178,-80.728,37661.0,25.0,100.0
New Bern,North Carolina,NC,United States of America,35.108,-77.04,31291.0,50.0,100.0
Alpharetta,Georgia,GA,United States of America,34.076,-84.295,65818.0,37.5,62.5
Radcliff,Kentucky,KY,United States of America,37.84,-85.938,23042.0,50.0,87.5
Cumming,Georgia,GA,United States of America,34.208,-84.134,7318.0,41.66666667,58.33333333
Ironton,Ohio,OH,United States of America,38.531,-82.677,10571.0,50.0,100.0
Midland,Michigan,MI,United States of America,43.613,-84.246,42547.0,33.33333333,95.0
Midland,Michigan,MI,United States of America,43.583,-84.264,2223.0,33.33333333,95.0
Valdosta,Georgia,GA,United States of America,30.832,-83.279,55378.0,50.0,100.0
Hobbs,New Mexico,NM,United States of America,32.701,-103.136,40508.0,50.0,100.0
Langley,Washington,WA,United States of America,48.034,-122.408,1147.0,0.0,100.0
Durango,Colorado,CO,United States of America,37.271,-107.881,19071.0,0.0,75.0
Farmington,New Mexico,NM,United States of America,36.729,-108.208,46624.0,50.0,95.0
Williamsport,Pennsylvania,PA,United States of America,41.242,-77.002,27754.0,0.0,100.0
Sheridan,Wyoming,WY,United States of America,44.797,-106.956,18737.0,12.5,95.83333333
Rochester,Michigan,MI,United States of America,42.687,-83.12,13035.0,0.0,100.0
Fairborn,Ohio,OH,United States of America,39.822,-84.021,34510.0,50.0,87.5
Ypsilanti,Michigan,MI,United States of America,42.2,-83.614,55670.0,66.66666667,75.0
Ypsilanti,Michigan,MI,United States of America,42.241,-83.615,20648.0,66.66666667,75.0
Lisle,Illinois,IL,United States of America,41.8,-88.075,24223.0,0.0,100.0
Pottsville,Pennsylvania,PA,United States of America,40.68,-76.209,13346.0,0.0,75.0
Concord,North Carolina,NC,United States of America,35.411,-80.581,105240.0,62.5,91.66666667
Watertown,South Dakota,SD,United States of America,44.9,-97.115,22655.0,50.0,95.83333333
Moses Lake,Washington,WA,United States of America,47.13,-119.278,25146.0,0.0,75.0
Johnstown,Pennsylvania,PA,United States of America,40.326,-78.918,18411.0,75.0,87.5
Bloomsburg,Pennsylvania,PA,United States of America,41.003,-76.457,12711.0,25.0,87.5
Hazard,Kentucky,KY,United States of America,37.248,-83.19,5263.0,50.0,100.0
New Castle,Pennsylvania,PA,United States of America,41.0,-80.347,21926.0,50.0,87.5
Anderson,South Carolina,SC,United States of America,34.503,-82.65,28106.0,0.0,87.5
Warren,Pennsylvania,PA,United States of America,41.843,-79.144,9404.0,50.0,100.0
Woodland,Washington,WA,United States of America,45.922,-122.75,6531.0,0.0,100.0
Ashland,Massachusetts,MA,United States of America,42.255,-71.464,18832.0,50.0,100.0
Rocky Mount,Virginia,VA,United States of America,37.005,-79.884,4903.0,75.0,50.0
Herndon,Virginia,VA,United States of America,38.97,-77.386,24655.0,25.0,50.0
Amherst,Virginia,VA,United States of America,37.582,-79.052,2110.0,50.0,100.0
Christiansburg,Virginia,VA,United States of America,37.141,-80.402,23348.0,100.0,75.0
Watertown,New York,NY,United States of America,43.975,-75.91,24685.0,37.5,62.5
Spring Hill,Tennessee,TN,United States of America,35.752,-86.929,50005.0,25.0,87.5
Airway Heights,Washington,WA,United States of America,47.644,-117.583,10757.0,0.0,100.0
Yelm,Washington,WA,United States of America,46.943,-122.643,10617.0,50.0,50.0
Sequim,Washington,WA,United States of America,48.075,-123.096,8024.0,25.0,100.0
Brier,Washington,WA,United States of America,47.792,-122.274,6560.0,0.0,100.0
Goose Creek,South Carolina,SC,United States of America,32.996,-80.039,45946.0,0.0,100.0
Waterloo,Wisconsin,WI,United States of America,43.184,-88.99,3492.0,50.0,100.0
Neenah,Wisconsin,WI,United States of America,44.186,-88.462,27319.0,0.0,50.0
Hempstead,New York,NY,United States of America,40.709,-73.625,59169.0,50.0,100.0
Plymouth,Michigan,MI,United States of America,42.372,-83.517,27938.0,50.0,50.0
Plymouth,Michigan,MI,United States of America,42.371,-83.468,9370.0,50.0,50.0
Woodburn,Oregon,OR,United States of America,45.144,-122.856,26013.0,0.0,100.0
Ponca City,Oklahoma,OK,United States of America,36.704,-97.084,24424.0,50.0,100.0
Portsmouth,Rhode Island,RI,United States of America,41.567,-71.262,17871.0,0.0,100.0
Zeeland,Michigan,MI,United States of America,42.812,-85.945,12008.0,0.0,100.0
Zeeland,Michigan,MI,United States of America,42.814,-86.014,5719.0,0.0,100.0
Roanoke,Indiana,IN,United States of America,40.964,-85.381,1762.0,35.71428571,95.45454545
Weirton,West Virginia,WV,United States of America,40.404,-80.589,19163.0,50.0,62.5
Detroit Lakes,Minnesota,MN,United States of America,46.804,-95.842,9869.0,50.0,100.0
Waterford,Connecticut,CT,United States of America,41.381,-72.157,19571.0,50.0,25.0
Deltona,Florida,FL,United States of America,28.901,-81.263,93692.0,75.0,87.5
Morehead,Kentucky,KY,United States of America,38.187,-83.451,7151.0,25.0,100.0
Birmingham,Iowa,IA,United States of America,40.878,-91.948,367.0,31.66666667,71.05263158
Waldorf,Minnesota,MN,United States of America,43.933,-93.697,201.0,75.0,100.0
Leawood,Kansas,KS,United States of America,38.906,-94.615,33902.0,75.0,50.0
Lakeport,California,CA,United States of America,39.04,-122.921,5026.0,50.0,100.0
Jackson,California,CA,United States of America,38.348,-120.772,5019.0,50.0,100.0
Upland,Indiana,IN,United States of America,40.463,-85.501,3821.0,50.0,62.5
Elko,South Carolina,SC,United States of America,33.381,-81.381,140.0,25.0,100.0
Cutler Bay,Florida,FL,United States of America,25.578,-80.338,45425.0,25.0,100.0
Greenville,North Carolina,NC,United States of America,35.611,-77.373,87521.0,25.0,90.0
Vadnais Heights,Minnesota,MN,United States of America,45.055,-93.072,12912.0,50.0,100.0
Hinesville,Georgia,GA,United States of America,31.847,-81.596,34891.0,25.0,75.0
Abington,Massachusetts,MA,United States of America,42.118,-70.956,17062.0,50.0,100.0
Williston,North Dakota,ND,United States of America,48.163,-103.632,29160.0,75.0,85.0
Fairmont,West Virginia,WV,United States of America,39.485,-80.143,18416.0,50.0,100.0
Warner Robins,Georgia,GA,United States of America,32.618,-83.633,80308.0,37.5,100.0
Elkhart,Indiana,IN,United States of America,41.685,-85.974,53923.0,50.0,87.5
Frankfort,Indiana,IN,United States of America,40.281,-86.512,16715.0,75.0,50.0
La Porte,Indiana,IN,United States of America,41.611,-86.722,22471.0,50.0,87.5
Sanford,North Carolina,NC,United States of America,35.48,-79.181,30261.0,50.0,100.0
Spruce Pine,North Carolina,NC,United States of America,35.914,-82.07,2194.0,0.0,100.0
Yanceyville,North Carolina,NC,United States of America,36.414,-79.342,1937.0,50.0,87.5
Mooresville,North Carolina,NC,United States of America,35.585,-80.81,50193.0,25.0,100.0
Hope Mills,North Carolina,NC,United States of America,34.968,-78.954,17808.0,50.0,100.0
Hickory,North Carolina,NC,United States of America,35.732,-81.338,43490.0,50.0,100.0
Bryson City,North Carolina,NC,United States of America,35.427,-83.447,1558.0,50.0,87.5
Buffalo,North Dakota,ND,United States of America,46.92,-97.55,195.0,50.0,100.0
Beaver Dam,Kentucky,KY,United States of America,37.407,-86.878,3531.0,50.0,100.0
Chesterfield,South Carolina,SC,United States of America,34.733,-80.078,1357.0,25.0,100.0
Stone Mountain,Georgia,GA,United States of America,33.804,-84.171,6703.0,100.0,0.0
Astoria,Illinois,IL,United States of America,40.228,-90.357,929.0,62.5,37.5
Ellsworth,Maine,ME,United States of America,44.543,-68.42,8399.0,50.0,100.0
Swampscott,Massachusetts,MA,United States of America,42.474,-70.9,15111.0,50.0,100.0
Seminole,Florida,FL,United States of America,27.843,-82.785,19364.0,0.0,100.0
Zephyrhills,Florida,FL,United States of America,28.239,-82.18,17194.0,50.0,25.0
California,Kentucky,KY,United States of America,38.918,-84.264,83.0,100.0,0.0
Gettysburg,South Dakota,SD,United States of America,45.006,-99.954,1104.0,75.0,75.0
Beloit,Kansas,KS,United States of America,39.465,-98.108,3404.0,62.5,50.0
Willoughby,Ohio,OH,United States of America,41.641,-81.407,23959.0,0.0,75.0
Mansfield,Georgia,GA,United States of America,33.517,-83.736,442.0,50.0,0.0
Ithaca,Michigan,MI,United States of America,43.292,-84.599,2853.0,40.625,93.75
Wayne,West Virginia,WV,United States of America,38.225,-82.441,1443.0,50.0,87.5
Bourne,Massachusetts,MA,United States of America,41.737,-70.575,20452.0,25.0,75.0
Longmeadow,Massachusetts,MA,United States of America,42.049,-72.579,15853.0,25.0,75.0
Owosso,Michigan,MI,United States of America,42.996,-84.174,14714.0,100.0,75.0
Owosso,Michigan,MI,United States of America,43.0,-84.247,4765.0,100.0,75.0
Amherst,New Hampshire,NH,United States of America,42.863,-71.607,11753.0,50.0,100.0
Hampton,South Carolina,SC,United States of America,32.868,-81.109,2694.0,50.0,37.5
Oakland,Tennessee,TN,United States of America,35.225,-89.538,8936.0,0.0,100.0
Arlington,Kansas,KS,United States of America,37.896,-98.177,435.0,16.66666667,66.66666667
Lewisburg,Tennessee,TN,United States of America,35.45,-86.788,12288.0,50.0,100.0
Clarksville,Indiana,IN,United States of America,38.298,-85.761,22333.0,0.0,95.0
Ashburn,Georgia,GA,United States of America,31.709,-83.652,4291.0,25.0,60.0
Franklin,West Virginia,WV,United States of America,38.645,-79.333,495.0,0.0,100.0
Decatur,Tennessee,TN,United States of America,35.533,-84.791,1563.0,100.0,75.0
Bridgewater,Connecticut,CT,United States of America,41.529,-73.363,1662.0,50.0,87.5
Cookeville,Tennessee,TN,United States of America,36.165,-85.513,34842.0,50.0,100.0
Peachtree City,Georgia,GA,United States of America,33.396,-84.591,38244.0,50.0,50.0
Syracuse,Indiana,IN,United States of America,41.422,-85.75,3079.0,50.0,75.0
Mandeville,Louisiana,LA,United States of America,30.375,-90.092,13192.0,75.0,75.0
Lynchburg,South Carolina,SC,United States of America,34.06,-80.077,318.0,0.0,100.0
Holderness,New Hampshire,NH,United States of America,43.75,-71.573,2004.0,50.0,100.0
Long Island,Kansas,KS,United States of America,39.946,-99.534,137.0,25.0,87.5
Yreka,California,CA,United States of America,41.724,-122.632,7807.0,50.0,100.0
Tyngsborough,Massachusetts,MA,United States of America,42.676,-71.411,12380.0,50.0,100.0
Huntingdon,Tennessee,TN,United States of America,36.006,-88.417,4439.0,50.0,75.0
Seaside,Oregon,OR,United States of America,45.989,-123.921,7115.0,0.0,100.0
Pooler,Georgia,GA,United States of America,32.116,-81.249,25711.0,25.0,75.0
Edison,Georgia,GA,United States of America,31.561,-84.737,1230.0,25.0,75.0
Topsham,Maine,ME,United States of America,43.959,-69.967,9560.0,50.0,100.0
Frederick,South Dakota,SD,United States of America,45.832,-98.507,215.0,33.33333333,91.66666667
Manistee,Michigan,MI,United States of America,44.246,-86.327,6259.0,50.0,100.0
Allegan,Michigan,MI,United States of America,42.531,-85.846,5222.0,0.0,100.0
Richland,Oregon,OR,United States of America,44.768,-117.169,165.0,0.0,100.0
Rumford,Maine,ME,United States of America,44.537,-70.625,5858.0,50.0,100.0
Pikeville,Kentucky,KY,United States of America,37.48,-82.527,7754.0,50.0,100.0
Douglasville,Georgia,GA,United States of America,33.751,-84.747,34650.0,75.0,25.0
Chesapeake,West Virginia,WV,United States of America,38.223,-81.536,1335.0,37.5,100.0
Brandon,Vermont,VT,United States of America,43.8,-73.095,4129.0,0.0,100.0
Yorkville,Tennessee,TN,United States of America,36.097,-89.118,236.0,0.0,100.0
Utica,Indiana,IN,United States of America,38.339,-85.656,860.0,37.5,93.75
Manassas,Georgia,GA,United States of America,32.161,-82.024,59.0,0.0,87.5
Gadsden,Tennessee,TN,United States of America,35.777,-88.986,469.0,75.0,87.5
Rutherford,Tennessee,TN,United States of America,36.126,-88.993,1163.0,100.0,0.0
Willimantic,Maine,ME,United States of America,45.307,-69.377,134.0,50.0,100.0
Middlesex,Vermont,VT,United States of America,44.324,-72.627,1779.0,50.0,83.33333333
Somerset,Vermont,VT,United States of America,42.975,-72.962,6.0,50.0,100.0
New Paltz,New York,NY,United States of America,41.75,-74.08,7324.0,50.0,100.0
Webster,New York,NY,United States of America,43.216,-77.422,5651.0,50.0,0.0
Princeton,Massachusetts,MA,United States of America,42.453,-71.879,3495.0,25.0,87.5
Bath,New York,NY,United States of America,42.336,-77.317,5571.0,50.0,100.0
Gainesville,New York,NY,United States of America,42.641,-78.135,211.0,25.0,100.0
Wausau,Wisconsin,WI,United States of America,44.96,-89.627,39994.0,25.0,100.0
Nantucket,Massachusetts,MA,United States of America,41.271,-70.008,14255.0,50.0,100.0
